tconst,location,latitude,longitude,titleType,primaryTitle
tt0203019,"Cathlamet, Washington, USA",46.2031656,-123.3831834,movie,Men of Honor
tt0203019,"Longview, Washington, USA",46.1381676,-122.9381672,movie,Men of Honor
tt0203019,"Diblee Point, Rainier, Oregon, USA",46.1184451,-123.0048351,movie,Men of Honor
tt0203019,"North Plains, Oregon, USA",45.59778499999999,-123.0008365,movie,Men of Honor
tt0203019,"Portland, Oregon, USA",45.515232,-122.6783853,movie,Men of Honor
tt0203019,"Rainier, Oregon, USA",46.0891348,-122.9359776,movie,Men of Honor
tt0203019,"Long Beach, California, USA",33.7700504,-118.1937395,movie,Men of Honor
tt0203019,"Washington, USA",47.7510741,-120.7401386,movie,Men of Honor
tt0203019,"Oregon, USA",43.8041334,-120.5542012,movie,Men of Honor
tt0203019,"California, USA",36.778261,-119.4179324,movie,Men of Honor
tt0203019,USA,37.09024,-95.712891,movie,Men of Honor
tt1233227,"Toronto, Ontario, Canada",43.653226,-79.3831843,movie,Saw VI
tt1837642,"6249 Pebble Shore Ln, Southport, North Carolina, USA",33.9272643,-77.99844379999999,tvSeries,Revenge
tt1837642,"Southport, North Carolina, USA",33.9182092,-78.01930109999999,tvSeries,Revenge
tt1837642,"Raleigh Manhattan Beach Studios - 1600 Rosecrans Avenue, Manhattan Beach, California, USA",35.7795897,-78.6381787,tvSeries,Revenge
tt1837642,"MBS Media Campus - 1600 Rosecrans Avenue, Manhattan Beach, California, USA",33.8988795,-118.3840303,tvSeries,Revenge
tt1837642,"Los Angeles, California, USA",34.0549076,-118.242643,tvSeries,Revenge
tt1206543,"Braddock, Pennsylvania, USA",40.4034024,-79.8683824,movie,Out of the Furnace
tt1206543,"Beaver Falls, Pennsylvania, USA",40.7520097,-80.31922949999999,movie,Out of the Furnace
tt1206543,"1304 Kirkpatrick Avenue, Braddock, Pennsylvania, USA",40.4000253,-79.856917,movie,Out of the Furnace
tt1206543,"Moundsville, West Virginia, USA",39.9203526,-80.7431407,movie,Out of the Furnace
tt1206543,"Burgettstown, Pennsylvania, USA",40.3820132,-80.3928423,movie,Out of the Furnace
tt1206543,"600 Anderson Street, Braddock, Pennsylvania, USA",40.40237339999999,-79.8609644,movie,Out of the Furnace
tt1206543,"Pittsburgh, Pennsylvania, USA",40.44062479999999,-79.9958864,movie,Out of the Furnace
tt1206543,"US 30 & Park Rd, Clinton, Pennsylvania, USA",40.5170995,-80.3662284,movie,Out of the Furnace
tt0472062,"Marrakech, Morocco",31.6225224,-7.989825799999999,movie,Charlie Wilson's War
tt0472062,Morocco,31.791702,-7.092619999999999,movie,Charlie Wilson's War
tt0472062,"Downey Studios - 12214 Lakewood Boulevard, Downey, California, USA",33.9213021,-118.1323812,movie,Charlie Wilson's War
tt0472062,"Hancock Park, Los Angeles, California, USA",34.0761744,-118.3385981,movie,Charlie Wilson's War
tt0472062,"Santa Clarita, California, USA",34.3916641,-118.542586,movie,Charlie Wilson's War
tt0472062,"Los Angeles, California, USA",34.0549076,-118.242643,movie,Charlie Wilson's War
tt1622979,"Vancouver, British Columbia, Canada",49.2827291,-123.1207375,movie,Final Destination 5
tt1622979,"Cypress Park, British Columbia, Canada",49.3462559,-123.249229,movie,Final Destination 5
tt1622979,"Lions Gate Bridge, Lions Gate Bridge Road, Vancouver, British Columbia, Canada",49.315048,-123.1390072,movie,Final Destination 5
tt0113492,"Shepperton Studios, Shepperton, Surrey, England, UK",51.4075493,-0.4636433,movie,Judge Dredd
tt0113492,"Öræfi, Iceland",64.3688889,-19.3744444,movie,Judge Dredd
tt0113492,"Bankside Power Station, Bankside, Southwark, London, England, UK",51.5083172,-0.1025563,movie,Judge Dredd
tt15789038,"Walt Disney Feature Animation - 500 S. Buena Vista Street, Burbank, California, USA",34.1583481,-118.3249137,movie,Elemental
tt15789038,"Pixar Animation Studios - 1200 Park Avenue, Emeryville, California, USA",37.8326602,-122.2837233,movie,Elemental
tt0182789,"Oracle Corporation, Redwood City, California, USA",37.5293808,-122.2658041,movie,Bicentennial Man
tt0182789,"Grace Cathedral Episcopal Church - 1100 California Street, San Francisco, California, USA",37.7918593,-122.4133739,movie,Bicentennial Man
tt0182789,"Woodside, California, USA",37.4299388,-122.2538557,movie,Bicentennial Man
tt0182789,"Half Moon Bay, California, USA",37.4635519,-122.4285862,movie,Bicentennial Man
tt0182789,"Fremont, California, USA",37.5485396,-121.988583,movie,Bicentennial Man
tt0182789,"Golden Gate Bridge, San Francisco, California, USA",37.8199109,-122.4785598,movie,Bicentennial Man
tt0182789,"Postcard Row, Alamo Square, Hayes Valley, San Francisco, California, USA",37.7760676,-122.4327231,movie,Bicentennial Man
tt0182789,"Redwood City, California, USA",37.4847955,-122.228141,movie,Bicentennial Man
tt0182789,"San Francisco, California, USA",37.7749295,-122.4194155,movie,Bicentennial Man
tt0182789,"Treasure Island, San Francisco Bay, California, USA",37.825284,-122.3699786,movie,Bicentennial Man
tt0182789,"Alameda, California, USA",37.7798721,-122.2821855,movie,Bicentennial Man
tt0182789,"City Hall - 1 Dr. Carlton B. Goodlett Place, San Francisco, California, USA",37.779275,-122.4192417,movie,Bicentennial Man
tt0182789,"Monument Valley, Utah, USA",37.004509,-110.173244,movie,Bicentennial Man
tt10016180,"Mosman's Steak House - 46643 60th St. West, Lancaster, California, USA",34.7305108,-118.2376102,movie,The Little Things
tt10016180,"14 Freeway in Palmdale, California, USA",34.5853623,-118.1339746,movie,The Little Things
tt10016180,"Santa Clarita, California, USA",34.3916641,-118.542586,movie,The Little Things
tt10016180,"Ventura, California, USA",34.2804923,-119.2945199,movie,The Little Things
tt10016180,"VIP Cabaret - 12147 Victory Blvd, North Hollywood, California, USA",34.1869901,-118.3983275,movie,The Little Things
tt10016180,"Twin Towers Correctional Facility - 450 Bauchet Street, Los Angeles, California, USA",34.0592381,-118.2306566,movie,The Little Things
tt10016180,"10929 McCormick Street, North Hollywood, California, USA",34.1660882,-118.3690234,movie,The Little Things
tt10016180,"North Hollywood Toyota, 4120 Lankershim Blvd., North Hollywood, California, USA",34.1449313,-118.3623251,movie,The Little Things
tt10016180,"Mulholland Dam, Hollywood Hills, Los Angeles, California, USA",34.1180068,-118.3312363,movie,The Little Things
tt10016180,"Hollywood Reservoir, Hollywood Hills, Los Angeles, California, USA",34.1197689,-118.3308532,movie,The Little Things
tt10016180,"Glendale Police Department, California, USA",34.1471336,-118.2489592,movie,The Little Things
tt10016180,"Vincent Hill Station Restaurant & Saloon, 533 Sierra Hwy, Acton, California, USA",34.5014045,-118.1182331,movie,The Little Things
tt10016180,"140 N Isabel St, Glendale, California, USA",34.1478306,-118.2485051,movie,The Little Things
tt10016180,"1000 E Main St, Alhambra, California, USA",34.0998714,-118.1164283,movie,The Little Things
tt10016180,"6700 Bright Ave, Whittier, California, USA",33.9792083,-118.0362973,movie,The Little Things
tt10016180,"1191 N Western Ave, Los Angeles, California, USA",34.0926321,-118.3094251,movie,The Little Things
tt10016180,"Frolic Room - 6245 Hollywood Blvd, Hollywood, Los Angeles, California, USA",34.1017836,-118.325876,movie,The Little Things
tt10016180,"La Loma Bridge - 799 La Loma Rd, Pasadena, California, USA",34.134167,-118.166944,movie,The Little Things
tt10016180,"13625 Moorpark St, Sherman Oaks, California, USA",34.1505248,-118.4305124,movie,The Little Things
tt10016180,"Los Angeles, California, USA",34.0549076,-118.242643,movie,The Little Things
tt10016180,"4242 Bakman Ave, Studio City, California, USA",34.1462041,-118.3775902,movie,The Little Things
tt10016180,"5056 N Eagle Rock Blvd, Los Angeles, California, USA",34.1386023,-118.2139235,movie,The Little Things
tt10016180,"512 Wall St, Los Angeles, California, USA",34.0443837,-118.2459697,movie,The Little Things
tt10016180,"300 E 5th St, Los Angeles, California, USA",34.0446105,-118.2457166,movie,The Little Things
tt10016180,"23000 Vasquez Canyon Rd, Santa Clarita, California, USA",34.4644264,-118.4375525,movie,The Little Things
tt10016180,"Camrose & High Tower Dr, Los Angeles, California, USA",34.1089468,-118.3390978,movie,The Little Things
tt10016180,"423 E 7th St, Los Angeles, California, USA",34.0417203,-118.2476695,movie,The Little Things
tt10016180,"3447 Laurelvale Dr, Studio City, California, USA",34.1336406,-118.3869621,movie,The Little Things
tt10016180,"4328 Ben Ave, Studio City, California, USA",34.1494343,-118.3940184,movie,The Little Things
tt0113855,"Phra Nang Beach, Railay Bay, Krabi, Thailand",8.0059287,98.8374807,movie,Mortal Kombat
tt0113855,"Ayuthaya, Thailand",14.3692325,100.5876634,movie,Mortal Kombat
tt0113855,"Railay Beach, Ao Nang, Krabi, Thailand",8.011711,98.83777599999999,movie,Mortal Kombat
tt0113855,"West Railay Beach, Krabi, Thailand",8.0132105,98.8370889,movie,Mortal Kombat
tt0113855,"Santa Monica, California, USA",34.0194543,-118.4911912,movie,Mortal Kombat
tt0113855,Thailand,15.870032,100.992541,movie,Mortal Kombat
tt0113855,"Van Nuys, Los Angeles, California, USA",34.2012166,-118.466222,movie,Mortal Kombat
tt0113855,"Kaiser Steel Mill, Fontana, California, USA",34.0803387,-117.50268,movie,Mortal Kombat
tt0113855,"Marina del Rey, California, USA",33.9802893,-118.4517449,movie,Mortal Kombat
tt0113855,"Los Angeles, California, USA",34.0549076,-118.242643,movie,Mortal Kombat
tt0113855,"Fontana, California, USA",34.0922335,-117.435048,movie,Mortal Kombat
tt0113855,"California, USA",36.778261,-119.4179324,movie,Mortal Kombat
tt0113855,USA,37.09024,-95.712891,movie,Mortal Kombat
tt0113855,"Long Beach, California, USA",33.7700504,-118.1937395,movie,Mortal Kombat
tt1870479,"Columbia/Sunset Gower Studios - 1438 N. Gower Street, Hollywood, Los Angeles, California, USA",34.0965452,-118.3213654,tvSeries,The Newsroom
tt1870479,"Hollywood, Los Angeles, California, USA",34.0907315,-118.3266146,tvSeries,The Newsroom
tt1870479,"Los Angeles, California, USA",34.0549076,-118.242643,tvSeries,The Newsroom
tt1870479,"California, USA",36.778261,-119.4179324,tvSeries,The Newsroom
tt1870479,USA,37.09024,-95.712891,tvSeries,The Newsroom
tt1870479,"Stage 7, Columbia/Sunset Gower Studios - 1438 N. Gower Street, Hollywood, Los Angeles, California, USA",34.0965452,-118.3213654,tvSeries,The Newsroom
tt0164184,"Olympic Stadium - 4545 Pierre-de-Coubertin Avenue, Montréal, Québec, Canada",45.5577438,-73.5515478,movie,The Sum of All Fears
tt0164184,"Carp, Ontario, Canada",45.3490658,-76.0413221,movie,The Sum of All Fears
tt0164184,"Montréal, Québec, Canada",45.5018869,-73.56739189999999,movie,The Sum of All Fears
tt0164184,"Ottawa, Ontario, Canada",45.4215296,-75.69719309999999,movie,The Sum of All Fears
tt0164184,"Diefenbunker Canada's Cold War Museum, Carp, Ontario, Canada",45.35169,-76.04774689999999,movie,The Sum of All Fears
tt0164184,"Moscow, Russia",55.755826,37.6173,movie,The Sum of All Fears
tt0164184,"Maison Notman - 51 Sherbrooke Street West, Montréal, Québec, Canada",45.5118625,-73.5700081,movie,The Sum of All Fears
tt0164184,"Mont-Royal Park, Montréal, Québec, Canada",45.50156639999999,-73.59321790000001,movie,The Sum of All Fears
tt0164184,"Baltimore, Maryland, USA",39.2903848,-76.6121893,movie,The Sum of All Fears
tt0164184,"Death Valley National Park, California, USA",36.5322649,-116.9325408,movie,The Sum of All Fears
tt0164184,"Mojave Desert, California, USA",35.01099110000001,-115.4733551,movie,The Sum of All Fears
tt0164184,"Le Windsor - 1170 Rue Peel, Montréal, Québec, Canada",45.4991709,-73.5714316,movie,The Sum of All Fears
tt0164184,"Masonic Memorial Temple - 1850 Sherbrooke Street West, Montréal, Québec, Canada",45.4946939,-73.5829651,movie,The Sum of All Fears
tt0164184,"Rue de la Commune Est, Montréal, Québec, Canada",45.5094426,-73.5509035,movie,The Sum of All Fears
tt0164184,"Washington, District of Columbia, USA",38.9071923,-77.0368707,movie,The Sum of All Fears
tt0164184,"The Kremlin, Moscow, Russia",55.7509544,37.6175755,movie,The Sum of All Fears
tt0164184,"San Diego, California, USA",32.715738,-117.1610838,movie,The Sum of All Fears
tt0113118,"126th Street, Los Angeles, California, USA",33.9183451,-118.3195632,movie,Friday
tt0113118,"1418 W 126th St Los Angeles, California, USA",33.9181007,-118.3009707,movie,Friday
tt0113118,"Los Angeles, California, USA",34.0549076,-118.242643,movie,Friday
tt0113118,"Normandie Ave & W 121st St, West Athens, CA 90047, USA",33.9230563,-118.3003701,movie,Friday
tt0113118,"1433 W 126th Street, Los Angeles, California, USA",33.9184963,-118.3014625,movie,Friday
tt0113118,"1208 W 135th St, Gardena, California, USA",33.909045,-118.2967562,movie,Friday
tt14138650,"Westminster College, New Wilmington, Pennsylvania, USA",41.119859,-80.332286,movie,The Pale Blue Eye
tt14138650,"Pittsburgh, Pennsylvania, USA",40.44062479999999,-79.9958864,movie,The Pale Blue Eye
tt14138650,"Lake Arthur, Pennsylvania, USA",40.953273,-80.1065646,movie,The Pale Blue Eye
tt14138650,"Laughlintown, Pennsylvania, USA",40.2119249,-79.1985923,movie,The Pale Blue Eye
tt14138650,"Compass Inn Museum, Laughlintown, Pennsylvania, USA",40.2118584,-79.1988269,movie,The Pale Blue Eye
tt14138650,"McConnells Mill State Park, Portersville, Pennsylvania, USA",40.9511122,-80.1691826,movie,The Pale Blue Eye
tt14138650,"Davis Hollow Cabin, Portersville, Pennsylvania, USA",40.9617565,-80.0692096,movie,The Pale Blue Eye
tt14138650,"Hartwood Acres Stables, Hartwood Acres Park, Pittsburgh, Pennsylvania, USA",40.5678881,-79.9124265,movie,The Pale Blue Eye
tt14138650,"Hartwood Acres Mansion, Hartwood Acres Park, Pittsburgh, Pennsylvania, USA",40.5702568,-79.90902299999999,movie,The Pale Blue Eye
tt14138650,"Moraine State Park, Portersville, Pennsylvania, USA",40.9390483,-80.0978076,movie,The Pale Blue Eye
tt14138650,"Old Economy Village, Ambridge, Pennsylvania, USA",40.59847130000001,-80.2316685,movie,The Pale Blue Eye
tt14138650,"Allegheny Cemetery, Pittsburgh, Pennsylvania, USA",40.474972,-79.957413,movie,The Pale Blue Eye
tt14138650,"Penguin Court, Laughlintown, Pennsylvania, USA",40.2015918,-79.1891392,movie,The Pale Blue Eye
tt0203259,"Pier 59 Studios, Chelsea Piers, Pier 59 - West 18th Street & West Side Highway, Chelsea, Manhattan, New York City, New York, USA",40.74575189999999,-74.0085954,tvSeries,Law & Order: Special Victims Unit
tt0203259,"Pratt Institute, Clinton Hill, Brooklyn, New York City, New York, USA",40.6913844,-73.9629858,tvSeries,Law & Order: Special Victims Unit
tt0203259,"North Bergen, New Jersey, USA",40.8042674,-74.012084,tvSeries,Law & Order: Special Victims Unit
tt0203259,"New York City, New York, USA",40.7127753,-74.0059728,tvSeries,Law & Order: Special Victims Unit
tt10151854,"Atlanta, Georgia, USA",33.748752,-84.38768449999999,movie,Shazam! Fury of the Gods
tt10151854,"Athens, Greece",37.9838096,23.7275388,movie,Shazam! Fury of the Gods
tt10151854,"Philadelphia, Pennsylvania, USA",39.9525839,-75.1652215,movie,Shazam! Fury of the Gods
tt10151854,"Georgia, USA",32.1574351,-82.90712300000001,movie,Shazam! Fury of the Gods
tt10151854,"New England Studios, Devens, Massachusetts, USA",42.539325,-71.629559,movie,Shazam! Fury of the Gods
tt1389072,"Trollfjord, Lofoten, Norway",68.3629115,14.9352599,movie,Downsizing
tt1389072,"Bergen, Hordaland, Norway",60.39126279999999,5.3220544,movie,Downsizing
tt1389072,"Omaha, Nebraska, USA",41.2565369,-95.9345034,movie,Downsizing
tt1389072,"Tysfjord, Norway",68.0351475,16.5027882,movie,Downsizing
tt1389072,"York University, North York, Toronto, Ontario, Canada",43.7615377,-79.41107939999999,movie,Downsizing
tt1389072,"CityPlace, Toronto, Ontario, Canada",43.6416061,-79.3901975,movie,Downsizing
tt1389072,"Perimeter Institute for Theoretical Physics, Waterloo, Ontario, Canada",43.465386,-80.52754200000001,movie,Downsizing
tt1389072,"University of Toronto Mississauga, Mississauga, Ontario, Canada",43.5482599,-79.66268409999999,movie,Downsizing
tt1389072,"Markham, Ontario, Canada",43.8561002,-79.3370188,movie,Downsizing
tt1389072,"Pinewood Toronto Studios, Port Lands, Toronto, Ontario, Canada",43.6490691,-79.3428698,movie,Downsizing
tt1389072,"Istanbul, Turkey",41.0082376,28.9783589,movie,Downsizing
tt1389072,"Revival 629, 629 Eastern Avenue, Toronto, Ontario, Canada",43.6581394,-79.33564199999999,movie,Downsizing
tt1389072,Norway,60.47202399999999,8.468945999999999,movie,Downsizing
tt1389072,"Lancaster, California, USA",34.703947,-118.1481016,movie,Downsizing
tt1389072,"Los Angeles, California, USA",34.0549076,-118.242643,movie,Downsizing
tt1389072,"Aga Khan Museum, Toronto, Ontario, Canada",43.7252521,-79.3322231,movie,Downsizing
tt1389072,"Toronto, Ontario, Canada",43.653226,-79.3831843,movie,Downsizing
tt1389072,"National Trade Centre, Toronto, Ontario, Canada",43.63507389999999,-79.4123625,movie,Downsizing
tt0822847,"El Mirage Dry Lake, California, USA",34.647,-117.60001,movie,Priest
tt0822847,"Soggy Dry Lake, Lucerne Valley, California, USA",34.44768870000001,-116.6854477,movie,Priest
tt0822847,"Trona Pinnacles - 300 S. Richmond Road, Ridgecrest, California, USA",35.6180986,-117.6476097,movie,Priest
tt0822847,"Lucerne Valley, California, USA",34.4437599,-116.9676823,movie,Priest
tt0822847,"Sony Pictures Studios - 10202 W. Washington Blvd., Culver City, California, USA",34.0177219,-118.4010554,movie,Priest
tt0822847,"Warner Brothers Burbank Studios - 4000 Warner Boulevard, Burbank, California, USA",34.1487314,-118.3386863,movie,Priest
tt0822847,"433 S Spring St, Los Angeles, California, USA",34.048347,-118.249225,movie,Priest
tt0822847,"Long Beach, California, USA",33.7700504,-118.1937395,movie,Priest
tt0822847,"Los Angeles, California, USA",34.0549076,-118.242643,movie,Priest
tt0822847,"Melody Ranch - 24715 Oak Creek Avenue, Newhall, California, USA",34.3834783,-118.5104008,movie,Priest
tt0822847,"Santa Clarita, California, USA",34.3916641,-118.542586,movie,Priest
tt0119395,"Porvoo, Finland",60.3931919,25.6652739,movie,The Jackal
tt0119395,"Kapteeninkatu, Ullanlinna, Helsinki, Finland",60.1574852,24.9454216,movie,The Jackal
tt0119395,"Helsinki-Vantaa Airport, Seutula, Vantaa, Finland",60.3186599,24.968048,movie,The Jackal
tt0119395,"Valkosaari, Helsinki, Finland",60.16141349999999,24.9658941,movie,The Jackal
tt0119395,"Lionel-Groulx Metro Station, Montréal, Québec, Canada",45.4828421,-73.5797529,movie,The Jackal
tt0119395,"Richmond, Virginia, USA",37.5407246,-77.4360481,movie,The Jackal
tt0119395,"Radisson Métro Station, Montréal, Québec, Canada",45.5890868,-73.5396361,movie,The Jackal
tt0119395,"Tehtaankatu, Ullanlinna, Helsinki, Finland",60.1582181,24.9450931,movie,The Jackal
tt0119395,"Montréal-Mirabel International Airport, Mirabel, Québec, Canada",45.6700057,-74.0322837,movie,The Jackal
tt0119395,"Chicago Yacht Club - 300 W. Belmont Avenue, Lake View, Chicago, Illinois, USA",41.9404652,-87.6348179,movie,The Jackal
tt0119395,"Moscow, Russia",55.755826,37.6173,movie,The Jackal
tt0119395,"Montréal, Québec, Canada",45.5018869,-73.56739189999999,movie,The Jackal
tt0119395,"Duvernay, Laval, Québec, Canada",45.5995734,-73.66877790000001,movie,The Jackal
tt0119395,"O'Hare International Airport, Chicago, Illinois, USA",41.9802588,-87.9089858,movie,The Jackal
tt0119395,"EUE/Screen Gems Studios - 1223 N 23rd Street, Wilmington, North Carolina, USA",34.2535575,-77.92142919999999,movie,The Jackal
tt0119395,"Cherokee Plantation - 5109 Combahee Rd, Yemassee, South Carolina, USA",32.694916,-80.75902839999999,movie,The Jackal
tt0119395,"Pinewood Studios, Iver Heath, Buckinghamshire, England, UK",51.5488872,-0.5319505999999999,movie,The Jackal
tt0119395,"Chicago, Illinois, USA",41.8781136,-87.6297982,movie,The Jackal
tt0119395,"Colleton County, South Carolina, USA",32.8242297,-80.7214417,movie,The Jackal
tt0119395,"Wilmington, North Carolina, USA",34.2103894,-77.8868117,movie,The Jackal
tt0119395,"Carolco Studios, Wilmington, North Carolina, USA",34.2103894,-77.8868117,movie,The Jackal
tt0119395,"Marina del Rey, California, USA",33.9802893,-118.4517449,movie,The Jackal
tt0119395,"Burnham Park Yacht Club - 1500 Linn White Drive, Near South Side, Chicago, Illinois, USA",41.862444,-87.6094815,movie,The Jackal
tt0119395,"Dorchester County, South Carolina, USA",33.1680383,-80.54384499999999,movie,The Jackal
tt0119395,"London, England, UK",51.5072178,-0.1275862,movie,The Jackal
tt0119395,"Summerville, South Carolina, USA",33.0188755,-80.17581009999999,movie,The Jackal
tt0119395,"Washington, District of Columbia, USA",38.9071923,-77.0368707,movie,The Jackal
tt0119395,"Skinners' Hall, City of London, England, UK",51.5111122,-0.09161939999999999,movie,The Jackal
tt0119395,"Los Angeles, California, USA",34.0549076,-118.242643,movie,The Jackal
tt0119395,"Saint James's Street, London, England, UK",51.5064993,-0.1393328,movie,The Jackal
tt0119395,"Charleston, South Carolina, USA",32.7833163,-79.9319664,movie,The Jackal
tt10189514,"Madurai, Tamil Nadu, India",9.9252007,78.1197754,movie,Soorarai Pottru
tt0223897,"Las Vegas, Nevada, USA",36.171563,-115.1391009,movie,Pay It Forward
tt0223897,"Coronado High School, 1001 Coronado Center Dr, Henderson, Nevada, USA",35.9944795,-115.1115274,movie,Pay It Forward
tt0223897,"St. Johns Bridge, Portland, Oregon, USA",45.5853347,-122.7645286,movie,Pay It Forward
tt0223897,"Centennial High School, 10200 W Centennial Pkwy, Las Vegas, Nevada, USA",36.2790255,-115.3193005,movie,Pay It Forward
tt0223897,"Bradbury Building - 304 S. Broadway, Downtown, Los Angeles, California, USA",34.050604,-118.2478573,movie,Pay It Forward
tt0223897,"The Lot - 1041 N. Formosa Avenue, West Hollywood, California, USA",34.0902288,-118.3464745,movie,Pay It Forward
tt0223897,"210 Lailani St, Las Vegas, Nevada, USA",36.1634778,-115.0337755,movie,Pay It Forward
tt0223897,"5316 Danville Lane, Las Vegas, Nevada, USA",36.0933569,-115.1696939,movie,Pay It Forward
tt0223897,"Vegas Club and Casino, 18 Fremont St, Las Vegas, Nevada, USA",36.1719712,-115.146686,movie,Pay It Forward
tt0223897,"611 S. Las Vegas Blvd, Las Vegas, Nevada, USA",36.1628856,-115.1444855,movie,Pay It Forward
tt0223897,"Nevada, USA",38.8026097,-116.419389,movie,Pay It Forward
tt0223897,USA,37.09024,-95.712891,movie,Pay It Forward
tt0137494,"Duart Castle, Mull, Argyll and Bute, Scotland, UK",56.4561763,-5.6551997,movie,Entrapment
tt0137494,"Eilean Donan Castle, Kyle of Lochalsh, Highland, Scotland, UK",57.2826065,-5.7143293,movie,Entrapment
tt0137494,"Petronas Twin Towers, Kuala Lumpur, Malaysia",3.1574693,101.7115639,movie,Entrapment
tt0137494,"Bukit Jalil Station, Kuala Lumpur, Malaysia",3.0586745,101.6917068,movie,Entrapment
tt0137494,"Malacca, Malaysia",2.189594,102.2500868,movie,Entrapment
tt0137494,"Albert R. Broccoli 007 Stage, Pinewood Studios, Iver Heath, Buckinghamshire, England, UK",51.5504308,-0.5353299,movie,Entrapment
tt0137494,"Blenheim Palace, Woodstock, Oxfordshire, England, UK",51.841365,-1.360972,movie,Entrapment
tt0137494,"KLCC Complex, Kuala Lumpur, Malaysia",3.146642,101.6958449,movie,Entrapment
tt0137494,"Lloyd's Building, Lime Street, Broadgate, Bishopsgate Without, City of London, England, UK",51.5126906,-0.08227469999999999,movie,Entrapment
tt0137494,"Savoy Hotel, Strand, Westminster, Greater London, England, UK",51.5101494,-0.1205205,movie,Entrapment
tt0137494,"Borough Market, 8 Southwark Street, London, Greater London, England, UK",51.5055826,-0.09048080000000001,movie,Entrapment
tt0137494,"Pinewood Studios, Iver Heath, Buckinghamshire, England, UK",51.5488872,-0.5319505999999999,movie,Entrapment
tt0137494,"Broadgate, Bishopsgate Without, City of London, England, UK",51.5185588,-0.0836398,movie,Entrapment
tt0137494,Malaysia,4.210484,101.975766,movie,Entrapment
tt0137494,"Kuala Lumpur, Malaysia",3.1319197,101.6840589,movie,Entrapment
tt0137494,"Scotland, UK",56.49067119999999,-4.2026458,movie,Entrapment
tt0137494,"New York City, New York, USA",40.7127753,-74.0059728,movie,Entrapment
tt0137494,"London, Greater London, England, UK",51.5072178,-0.1275862,movie,Entrapment
tt0137494,"England, UK",52.3555177,-1.1743197,movie,Entrapment
tt0137494,UK,55.378051,-3.435973,movie,Entrapment
tt0137494,"World Trade Center, Manhattan, New York City, New York, USA",40.7118011,-74.0131196,movie,Entrapment
tt0137494,"Manhattan, New York City, New York, USA",40.7830603,-73.9712488,movie,Entrapment
tt0137494,USA,37.09024,-95.712891,movie,Entrapment
tt0137494,"Bishopsgate Without, City of London, England, UK",51.5167977,-0.0810585,movie,Entrapment
tt0137494,"Woodstock, Oxfordshire, England, UK",51.847267,-1.354091,movie,Entrapment
tt0137494,"Strand, Westminster, Greater London, England, UK",51.5111922,-0.1194006,movie,Entrapment
tt0137494,"Westminster, Greater London, England, UK",51.4974948,-0.1356583,movie,Entrapment
tt0137494,"City of London, England, UK",51.5123443,-0.0909852,movie,Entrapment
tt1201167,"Griffith Observatory, 2800 E Observatory Rd, Los Angeles, California, USA",34.1184341,-118.3003935,movie,Funny People
tt1201167,"Los Angeles International Airport - 1 World Way, Los Angeles, California, USA",33.942153,-118.4036052,movie,Funny People
tt1201167,"Los Angeles, California, USA",34.0549076,-118.242643,movie,Funny People
tt1201167,"Paramount, California, USA",33.8894598,-118.1597911,movie,Funny People
tt1201167,"San Francisco International Airport, San Francisco, California, USA",37.6192526,-122.3815739,movie,Funny People
tt1201167,"Sausalito, California, USA",37.8590937,-122.4852507,movie,Funny People
tt0430357,"Old City, Montevideo, Uruguay",-34.9055894,-56.2034161,movie,Miami Vice
tt0430357,"Atlántida, Canelones, Uruguay",-34.7742796,-55.7590249,movie,Miami Vice
tt0430357,"Punta del Este, Maldonado, Uruguay",-34.9360588,-54.9378104,movie,Miami Vice
tt0430357,"Montevideo, Uruguay",-34.9055016,-56.1851147,movie,Miami Vice
tt0430357,"Iguaçu Falls, Parque Nacional do Iguaçu, Foz do Iguaçu, Paraná, Brazil",-25.6153549,-54.4787676,movie,Miami Vice
tt0430357,"Ciudad del Este, Alto Paraná, Paraguay",-25.4987076,-54.6636526,movie,Miami Vice
tt0430357,"Santo Domingo, Dominican Republic",18.4626178,-69.93609239999999,movie,Miami Vice
tt0430357,"Stage 6, Universal Studios - 100 Universal City Plaza, Universal City, California, USA",34.13811680000001,-118.3533783,movie,Miami Vice
tt0430357,"Miami, Florida, USA",25.7616798,-80.1917902,movie,Miami Vice
tt0430357,Uruguay,-32.522779,-55.765835,movie,Miami Vice
tt0430357,"Mansion Nightclub - Washington Avenue, South Beach, Miami Beach, Florida, USA",25.7834906,-80.1318847,movie,Miami Vice
tt0430357,"Miami Beach, Florida, USA",25.790654,-80.1300455,movie,Miami Vice
tt0430357,"Iguazú National Park, Argentina",-25.6829476,-54.4546339,movie,Miami Vice
tt0430357,"Iguazú Falls, Argentina",-25.695259,-54.4366662,movie,Miami Vice
tt0430357,Paraguay,-23.442503,-58.443832,movie,Miami Vice
tt0430357,Brasil,-14.235004,-51.92528,movie,Miami Vice
tt0430357,Dominican Republic,18.735693,-70.162651,movie,Miami Vice
tt0430357,"Delray Beach, Florida, USA",26.4614625,-80.0728201,movie,Miami Vice
tt0430357,"Florida, USA",27.6648274,-81.5157535,movie,Miami Vice
tt0430357,"Iguazú Waterfalls, Misiones, Argentina",-25.69113877855465,-54.44105395919169,movie,Miami Vice
tt0430357,Argentina,-38.416097,-63.61667199999999,movie,Miami Vice
tt0430357,USA,37.09024,-95.712891,movie,Miami Vice
tt0430357,"Scottish Rite Temple, 471 NW 3rd St, Miami, FL 33128, USA",25.7768252,-80.2026193,movie,Miami Vice
tt0117218,"Biltmore Hotel - 506 S. Grand Avenue, Downtown, Los Angeles, California, USA",34.0497246,-118.2541501,movie,The Nutty Professor
tt0117218,"Courthouse Square, Backlot, Universal Studios - 100 Universal City Plaza, Universal City, California, USA",34.13811680000001,-118.3533783,movie,The Nutty Professor
tt0117218,"Janss Steps, UCLA, Westwood, Los Angeles, California, USA",34.0721929,-118.443168,movie,The Nutty Professor
tt0117218,"Royce Hall - 340 Royce Drive, UCLA, Westwood, Los Angeles, California, USA",34.0728552,-118.4421766,movie,The Nutty Professor
tt0117218,"Mayfield Senior School - 500 Bellefontaine Street, Pasadena, California, USA",34.1307012,-118.1612771,movie,The Nutty Professor
tt0117218,"San Marino, California, USA",34.121397,-118.1064585,movie,The Nutty Professor
tt0117218,"The Huntington Library, Art Collections, and Botanical Gardens - 1151 Oxford Rd, San Marino, California, USA",34.1290452,-118.1145242,movie,The Nutty Professor
tt0117218,"Wilshire Boulevard at Westwood Boulevard, Los Angeles, California, USA",34.0588154,-118.4438603,movie,The Nutty Professor
tt0117218,"Beverly Hills, California, USA",34.0736204,-118.4003563,movie,The Nutty Professor
tt4501244,"Grand Rapids, Michigan, USA",42.9633599,-85.6680863,movie,Why Him?
tt4501244,"Los Angeles, California, USA",34.0549076,-118.242643,movie,Why Him?
tt10298810,"Pixar Animation Studios - 1200 Park Avenue, Emeryville, California, USA",37.8326602,-122.2837233,movie,Lightyear
tt10298810,"Emeryville, California, USA",37.8395028,-122.2892278,movie,Lightyear
tt10298810,"California, USA",36.778261,-119.4179324,movie,Lightyear
tt10298810,"New York, USA",40.7127753,-74.0059728,movie,Lightyear
tt10298810,USA,37.09024,-95.712891,movie,Lightyear
tt10298810,"New York City, New York, USA",40.7127753,-74.0059728,movie,Lightyear
tt10298810,"Walt Disney Feature Animation - 500 S. Buena Vista Street, Burbank, California, USA",34.1583481,-118.3249137,movie,Lightyear
tt3846674,"Vancouver, British Columbia, Canada",49.2827291,-123.1207375,movie,To All the Boys I've Loved Before
tt3846674,"Point Grey Secondary School, Vancouver, British Columbia, Canada",49.2378073,-123.1533586,movie,To All the Boys I've Loved Before
tt3846674,"Fort Langley, British Columbia, Canada",49.16837,-122.579975,movie,To All the Boys I've Loved Before
tt3846674,"9147 Gay Street, Langley, British Columbia, Canada",49.1687244,-122.5907404,movie,To All the Boys I've Loved Before
tt3846674,"1490 Pemberton Avenue, North Vancouver, British Columbia, Canada",49.321964,-123.1076347,movie,To All the Boys I've Loved Before
tt3846674,"British Columbia Institute of Technology - Aerospace Technology Campus, 3800 Cessna Drive, Richmond, British Columbia, Canada",49.1848816,-123.1448949,movie,To All the Boys I've Loved Before
tt3846674,"Richmond, British Columbia, Canada",49.1665898,-123.133569,movie,To All the Boys I've Loved Before
tt3846674,"British Columbia, Canada",53.7266683,-127.6476206,movie,To All the Boys I've Loved Before
tt3846674,Canada,56.130366,-106.346771,movie,To All the Boys I've Loved Before
tt1259528,"Atlanta, Georgia, USA",33.748752,-84.38768449999999,movie,Den of Thieves
tt1259528,"Johnny's Hideaway, 3771 Roswell Road NE, Atlanta, Georgia, USA",33.8577533,-84.3808785,movie,Den of Thieves
tt1259528,"Bluff St SW, Atlanta, Georgia",33.7394335,-84.4101235,movie,Den of Thieves
tt1259528,"Murphy Ave SW, Atlanta, Georgia, USA",33.7211022,-84.4232425,movie,Den of Thieves
tt1259528,"438 Henry Ford II Ave, Atlanta, Georgia, USA",33.6552076,-84.40379899999999,movie,Den of Thieves
tt1259528,"2891 Lakewood Ave SW, Atlanta, Georgia, USA",33.6975997,-84.41131639999999,movie,Den of Thieves
tt0256415,"Eufaula, Alabama, USA",31.8912717,-85.1454876,movie,Sweet Home Alabama
tt0256415,"Rome, Georgia, USA",34.257038,-85.1646726,movie,Sweet Home Alabama
tt0256415,"Berry College - 2277 Martha Berry Highway, Rome, Georgia, USA",34.2888488,-85.1873397,movie,Sweet Home Alabama
tt0256415,"Conyers, Georgia, USA",33.6676103,-84.01769039999999,movie,Sweet Home Alabama
tt0256415,"Starr's Mill, Georgia, USA",33.3273406,-84.51242669999999,movie,Sweet Home Alabama
tt0256415,"Covington, Georgia, USA",33.5967815,-83.8601827,movie,Sweet Home Alabama
tt0256415,"Georgia International Horse Park - 1996 Centennial Olympic Highway, Conyers, Georgia, USA",33.6638567,-83.9316707,movie,Sweet Home Alabama
tt0256415,"Peachtree City, Georgia, USA",33.3968557,-84.59634319999999,movie,Sweet Home Alabama
tt0256415,"Crawfordville, Georgia, USA",33.5540209,-82.8959785,movie,Sweet Home Alabama
tt0256415,"Atlanta, Georgia, USA",33.748752,-84.38768449999999,movie,Sweet Home Alabama
tt0256415,"Castleberry Hill, Atlanta, Georgia, USA",33.7492851,-84.400194,movie,Sweet Home Alabama
tt0256415,"Captiva Island, Florida, USA",26.5275781,-82.1948171,movie,Sweet Home Alabama
tt0256415,"New York City, New York, USA",40.7127753,-74.0059728,movie,Sweet Home Alabama
tt0256415,"Alabama, USA",32.3182314,-86.902298,movie,Sweet Home Alabama
tt0256415,"Georgia, USA",32.1574351,-82.90712300000001,movie,Sweet Home Alabama
tt0256415,USA,37.09024,-95.712891,movie,Sweet Home Alabama
tt0256415,"Barwick Studios - 4585 Electronics Place, Los Angeles, California, USA",34.1451116,-118.2762525,movie,Sweet Home Alabama
tt0256415,"Los Angeles, California, USA",34.0549076,-118.242643,movie,Sweet Home Alabama
tt0256415,"California, USA",36.778261,-119.4179324,movie,Sweet Home Alabama
tt1821549,"Lincoln, Nebraska, USA",40.8136634,-96.7025764,movie,Nebraska
tt1821549,"Osmond, Nebraska, USA",42.3563631,-97.5968118,movie,Nebraska
tt1821549,"Billings, Montana, USA",45.7832856,-108.5006904,movie,Nebraska
tt1821549,"Hooper, Nebraska, USA",41.6099978,-96.5472484,movie,Nebraska
tt1821549,"Stanton, Nebraska, USA",41.950284,-97.2239336,movie,Nebraska
tt1821549,"Plainview, Nebraska, USA",42.3497265,-97.7920091,movie,Nebraska
tt1821549,"Elgin, Nebraska, USA",41.9833412,-98.08367729999999,movie,Nebraska
tt1821549,"Norfolk, Nebraska, USA",42.0327168,-97.41681709999999,movie,Nebraska
tt1821549,"South Dakota, USA",43.9695148,-99.9018131,movie,Nebraska
tt1821549,"Wyoming, USA",43.0759678,-107.2902839,movie,Nebraska
tt1821549,"Rapid City, South Dakota, USA",44.0805434,-103.2310149,movie,Nebraska
tt1821549,"Mount Rushmore National Memorial - Highway 244, Keystone, South Dakota, USA",43.8803357,-103.4537746,movie,Nebraska
tt1821549,"Norfolk, Nebraska, USA",42.0327168,-97.41681709999999,movie,Nebraska
tt1821549,"Nebraska, USA",41.4925374,-99.9018131,movie,Nebraska
tt1821549,"South Dakota, USA",43.9695148,-99.9018131,movie,Nebraska
tt1821549,"Laurel, Montana, USA",45.6691159,-108.7715328,movie,Nebraska
tt1821549,USA,37.09024,-95.712891,movie,Nebraska
tt0486946,"Madrid, New Mexico, USA",35.4067047,-106.1525226,movie,Wild Hogs
tt0486946,"Jemez Springs, New Mexico, USA",35.7686356,-106.692258,movie,Wild Hogs
tt0486946,"Rio Grande Gorge Bridge, Taos, New Mexico, USA",36.4762244,-105.7330458,movie,Wild Hogs
tt0486946,"Angel Fire, New Mexico, USA",36.3930879,-105.2850091,movie,Wild Hogs
tt0486946,"Pojoaque, New Mexico, USA",35.8928034,-106.0230784,movie,Wild Hogs
tt0486946,"Point Mugu, California, USA",34.08556240000001,-119.060935,movie,Wild Hogs
tt0486946,"Bonanza Creek Ranch - 15 Bonanza Creek Lane, Santa Fe, New Mexico, USA",35.5345616,-106.113909,movie,Wild Hogs
tt0486946,"Albuquerque, New Mexico, USA",35.0843859,-106.650422,movie,Wild Hogs
tt0486946,"New Mexico, USA",34.9727305,-105.0323635,movie,Wild Hogs
tt2017109,"Gastonia, North Carolina, USA",35.2621735,-81.1870849,tvSeries,Banshee
tt2017109,"Lincolnton, North Carolina, USA",35.473745,-81.2545251,tvSeries,Banshee
tt2017109,"Pittsburgh, Pennsylvania, USA",40.44062479999999,-79.9958864,tvSeries,Banshee
tt2017109,"Mooresville, North Carolina, USA",35.5820319,-80.8140473,tvSeries,Banshee
tt2017109,"Waxhaw, North Carolina, USA",34.9245935,-80.7434019,tvSeries,Banshee
tt2017109,"Monroe, North Carolina, USA",34.9854275,-80.5495112,tvSeries,Banshee
tt2017109,"Greenville, South Carolina, USA",34.85261759999999,-82.3940104,tvSeries,Banshee
tt2017109,"8940 Old Statesville Rd, Charlotte, North Carolina, USA",35.3437393,-80.8236136,tvSeries,Banshee
tt2017109,"Charlotte, North Carolina, USA",35.2270869,-80.8431267,tvSeries,Banshee
tt2017109,"Wilmington, North Carolina, USA",34.2103894,-77.8868117,tvSeries,Banshee
tt2017109,"Vandergrift, Pennsylvania, USA",40.6028434,-79.56476669999999,tvSeries,Banshee
tt1615160,"Larne, County Antrim, Northern Ireland, UK",54.8578003,-5.8236224,movie,The Foreigner
tt1615160,"Lambeth Bridge, River Thames, London, England, UK",51.4945633,-0.123211,movie,The Foreigner
tt1615160,"Churton Street, Pimlico, London, England, UK",51.4913565,-0.1389891,movie,The Foreigner
tt1615160,"Lawn House Close, Isle of Dogs, London, England, UK",51.4999277,-0.0105166,movie,The Foreigner
tt1615160,"London, England, UK",51.5072178,-0.1275862,movie,The Foreigner
tt1637727,"Vancouver, British Columbia, Canada",49.2827291,-123.1207375,tvSeries,The Killing
tt1637727,"The Bridge Studios - 2400 Boundary Road, Burnaby, British Columbia, Canada",49.2630699,-123.0206383,tvSeries,The Killing
tt0112740,"Île Longue, Lanvéoc, Finistère, France",48.287047,-4.461252,movie,Crimson Tide
tt0112740,"Chapman University - One University Drive, Orange, California, USA",33.7943211,-117.8518422,movie,Crimson Tide
tt0112740,"Burbank City Hall - 275 E. Olive Ave, Burbank, California, USA",34.1820307,-118.3080741,movie,Crimson Tide
tt0112740,"Orange, California, USA",33.7879085,-117.855281,movie,Crimson Tide
tt0112740,USA,37.09024,-95.712891,movie,Crimson Tide
tt0112740,France,46.227638,2.213749,movie,Crimson Tide
tt0112740,"Burbank, California, USA",34.1808392,-118.3089661,movie,Crimson Tide
tt0112740,"California, USA",36.778261,-119.4179324,movie,Crimson Tide
tt0250687,"Palmdale, California, USA",34.5794343,-118.1164613,movie,Rat Race
tt0250687,"Drumheller, Alberta, Canada",51.4619438,-112.7106587,movie,Rat Race
tt0250687,"Venetian Hotel - 3355 Las Vegas Blvd South, Las Vegas, Nevada, USA",36.121174,-115.1696526,movie,Rat Race
tt0250687,"Ely, Nevada, USA",39.2533328,-114.874248,movie,Rat Race
tt0250687,"Santa Clarita, California, USA",34.3916641,-118.542586,movie,Rat Race
tt0250687,"Lancaster, California, USA",34.703947,-118.1481016,movie,Rat Race
tt0250687,"Las Vegas, Nevada, USA",36.171563,-115.1391009,movie,Rat Race
tt0250687,"Rosamond, California, USA",34.8643808,-118.163307,movie,Rat Race
tt0250687,"Calgary, Alberta, Canada",51.04473309999999,-114.0718831,movie,Rat Race
tt0250687,"McCarran International Airport - 5757 Wayne Newton Boulevard, Las Vegas, Nevada, USA",36.08309070000001,-115.1482238,movie,Rat Race
tt0250687,"California, USA",36.778261,-119.4179324,movie,Rat Race
tt0250687,"Nevada, USA",38.8026097,-116.419389,movie,Rat Race
tt0250687,"Los Angeles, California, USA",34.0549076,-118.242643,movie,Rat Race
tt0250687,"Alberta, Canada",53.9332706,-116.5765035,movie,Rat Race
tt0250687,USA,37.09024,-95.712891,movie,Rat Race
tt0250687,Canada,56.130366,-106.346771,movie,Rat Race
tt2404311,"Paris, France",48.856614,2.3522219,movie,The Family
tt2404311,"Gacé, Orne, France",48.79582,0.295245,movie,The Family
tt2404311,"L'Aigle, Orne, France",48.764651,0.628715,movie,The Family
tt2404311,"Orne, France",48.6388567,0.0848201,movie,The Family
tt2404311,"Le Sap, Orne, France",48.893985,0.338034,movie,The Family
tt2404311,"New York City, New York, USA",40.7127753,-74.0059728,movie,The Family
tt2404311,"Studios de Paris, La Cité du Cinéma, Saint-Denis, Seine-Saint-Denis, France",48.92237,2.3391829,movie,The Family
tt0290978,"Slough Trading Estate, Slough, Berkshire, England, UK",51.52443719999999,-0.6400559,tvSeries,The Office
tt0290978,"Teddington Studios, Teddington, Middlesex, England, UK",51.4290423,-0.3213782,tvSeries,The Office
tt0397101,"Bayou Gauche, Louisiana, USA",29.7874316,-90.4131376,movie,The Skeleton Key
tt0397101,"Vacherie, Louisiana, USA",30.0110809,-90.71971429999999,movie,The Skeleton Key
tt0397101,"Felicity Plantation, Vacherie, Louisiana, USA",30.0059865,-90.77226019999999,movie,The Skeleton Key
tt0397101,"New Orleans, Louisiana, USA",29.95106579999999,-90.0715323,movie,The Skeleton Key
tt0397101,"Stage 27, Universal Studios - 100 Universal City Plaza, Universal City, California, USA",34.13811680000001,-118.3533783,movie,The Skeleton Key
tt0397101,"Stage 28, Universal Studios - 100 Universal City Plaza, Universal City, California, USA",34.13811680000001,-118.3533783,movie,The Skeleton Key
tt0397101,"Laurel Valley, Thibodaux, Louisiana, USA",29.8181659,-90.7652749,movie,The Skeleton Key
tt0397101,"Los Angeles, California, USA",34.0549076,-118.242643,movie,The Skeleton Key
tt0397101,"Stage 29, Universal Studios - 100 Universal City Plaza, Universal City, California, USA",34.13811680000001,-118.3533783,movie,The Skeleton Key
tt0397101,"Evergreen Plantation, Wallace, Louisiana, USA",30.0268447,-90.63960829999999,movie,The Skeleton Key
tt0490215,Taiwan,23.69781,120.960515,movie,Silence
tt0490215,"Taipei City, Taiwan",25.0329636,121.5654268,movie,Silence
tt0490215,"Macau, China",22.198745,113.543873,movie,Silence
tt0490215,"CMPC Studio, Taipei City, Taiwan",25.0968984,121.5448055,movie,Silence
tt0490215,"Taichung, Taiwan",24.1631651,120.6746691,movie,Silence
tt0490215,"Hualien, Taiwan",23.9830586,121.5997835,movie,Silence
tt0490215,"Beitou, Taipei City, Taiwan",25.1151759,121.515018,movie,Silence
tt0490215,"Yangmingshan National Park, Taipei City, Taiwan",25.1942462,121.5609363,movie,Silence
tt1408253,"Atlanta, Georgia, USA",33.748752,-84.38768449999999,movie,Ride Along
tt1408253,"Los Angeles, California, USA",34.0549076,-118.242643,movie,Ride Along
tt1408253,"Elliott Street Deli and Pub, 51 Elliott St SW, Atlanta, Georgia, USA",33.7532233,-84.398217,movie,Ride Along
tt0405508,"Nahargarh Fort, Jaipur, Rajasthan, India",26.9401659,75.8170373,movie,Rang De Basanti
tt0405508,"India Gate, New Delhi, Delhi, India",28.612912,77.2295097,movie,Rang De Basanti
tt0405508,"Mughal Sarai, Doraha, Ludhiana, India",30.7982185,76.02177859999999,movie,Rang De Basanti
tt0405508,"Modern School, Barakhamba Road, New Delhi, India",28.6291761,77.2291375,movie,Rang De Basanti
tt0405508,"Indian Habitat Centre, New Delhi, India",28.5896808,77.22556019999999,movie,Rang De Basanti
tt0405508,"London, England, UK",51.5072178,-0.1275862,movie,Rang De Basanti
tt0317198,"Lech, Vorarlberg, Austria",47.2111926,10.1439399,movie,Bridget Jones: The Edge of Reason
tt0317198,"Phuket, Thailand",7.9843109,98.3307468,movie,Bridget Jones: The Edge of Reason
tt0317198,"St James' Church, The Square, Shere, Guildford, Surrey, England, UK",51.2190681,-0.4631282999999999,movie,Bridget Jones: The Edge of Reason
tt0317198,"Bangkok, Thailand",13.7563309,100.5017651,movie,Bridget Jones: The Edge of Reason
tt0317198,"Bedale Street, London, Greater London, England, UK",51.5053894,-0.0899194,movie,Bridget Jones: The Edge of Reason
tt0317198,"Hyde Park, Westminster, Greater London, England, UK",51.5073638,-0.1641135,movie,Bridget Jones: The Edge of Reason
tt0317198,"Nakornpathom, Thailand",13.8249803,100.0135929,movie,Bridget Jones: The Edge of Reason
tt0317198,"Kensington Gardens, Westminster, Greater London, England, UK",51.506987,-0.179165,movie,Bridget Jones: The Edge of Reason
tt0317198,"The Light Bar, 233 Shoreditch High Street, Shoreditch, London, Greater London, England, UK",51.5221414,-0.07833,movie,Bridget Jones: The Edge of Reason
tt0317198,"Rome, Lazio, Italy",41.8967068,12.4822025,movie,Bridget Jones: The Edge of Reason
tt0317198,"Trinity Church Square, Newington, London, Greater London, England, UK",51.4990579,-0.0939929,movie,Bridget Jones: The Edge of Reason
tt0317198,"Newington, London, Greater London, England, UK",51.500194,-0.103378,movie,Bridget Jones: The Edge of Reason
tt0317198,"Guildford, Surrey, England, UK",51.23622,-0.570409,movie,Bridget Jones: The Edge of Reason
tt0317198,"Aldbury, Tring, Hertfordshire, England, UK",51.80324419999999,-0.6016020999999999,movie,Bridget Jones: The Edge of Reason
tt0317198,"Chiswick, London, Greater London, England, UK",51.4876272,-0.2671732,movie,Bridget Jones: The Edge of Reason
tt0317198,"London, Greater London, England, UK",51.5072178,-0.1275862,movie,Bridget Jones: The Edge of Reason
tt0317198,"Piccadilly Circus, Mayfair, Westminster, Greater London, England, UK",51.5067126,-0.1428323,movie,Bridget Jones: The Edge of Reason
tt0317198,"Rigby & Peller, 22A Conduit Street, Mayfair, Westminster, Greater London, England, UK",51.5119929,-0.1423604,movie,Bridget Jones: The Edge of Reason
tt0317198,"Stockers Farm, Stockers Farm Road, Rickmansworth, Hertfordshire, England, UK",51.6304725,-0.472441,movie,Bridget Jones: The Edge of Reason
tt0317198,"Ashridge House, Ashridge Estate, Moneybury Hill, Ringshall, Berkhamsted, Hertfordshire, England, UK",51.809859,-0.5967473,movie,Bridget Jones: The Edge of Reason
tt0317198,"Ashridge Estate, Moneybury Hill, Ringshall, Berkhamsted, Hertfordshire, England, UK",51.809859,-0.5967473,movie,Bridget Jones: The Edge of Reason
tt0317198,"Headcorn, Ashford, Kent, England, UK",51.16943000000001,0.619856,movie,Bridget Jones: The Edge of Reason
tt0317198,"233 Shoreditch High Street, Shoreditch, London, Greater London, England, UK",51.5221439,-0.0784502,movie,Bridget Jones: The Edge of Reason
tt0317198,"Shoreditch High Street, Shoreditch, London, Greater London, England, UK",51.5244134,-0.0772945,movie,Bridget Jones: The Edge of Reason
tt0317198,"Shoreditch, London, Greater London, England, UK",51.5229106,-0.0777472,movie,Bridget Jones: The Edge of Reason
tt0317198,"Ashley Building, Middle Temple Lane, Temple, City of London, England, UK",51.512306,-0.1110312,movie,Bridget Jones: The Edge of Reason
tt0317198,"Middle Temple Lane, Temple, City of London, England, UK",51.512306,-0.1110312,movie,Bridget Jones: The Edge of Reason
tt0317198,"Temple, City of London, England, UK",51.511287,-0.113685,movie,Bridget Jones: The Edge of Reason
tt0317198,"City of London, England, UK",51.5123443,-0.0909852,movie,Bridget Jones: The Edge of Reason
tt0317198,"Westminster, Greater London, England, UK",51.4974948,-0.1356583,movie,Bridget Jones: The Edge of Reason
tt0317198,"22A Conduit Street, Mayfair, Westminster, Greater London, England, UK",51.51203289999999,-0.1424754,movie,Bridget Jones: The Edge of Reason
tt0317198,"Conduit Street, Mayfair, Westminster, Greater London, England, UK",51.5121856,-0.1419701,movie,Bridget Jones: The Edge of Reason
tt0317198,"Mayfair, Westminster, Greater London, England, UK",51.5116269,-0.147806,movie,Bridget Jones: The Edge of Reason
tt0317198,"The Square, Shere, Guildford, Surrey, England, UK",51.2192642,-0.4645594,movie,Bridget Jones: The Edge of Reason
tt0317198,"Shere, Guildford, Surrey, England, UK",51.2194368,-0.4648081,movie,Bridget Jones: The Edge of Reason
tt0317198,"West Smithfield, Farringdon Without, City of London, England, UK",51.518296,-0.1031021,movie,Bridget Jones: The Edge of Reason
tt0317198,"Farringdon Without, City of London, England, UK",51.52421529999999,-0.1066681,movie,Bridget Jones: The Edge of Reason
tt0317198,"Stockers Farm Road, Rickmansworth, Hertfordshire, England, UK",51.6304463,-0.4744526,movie,Bridget Jones: The Edge of Reason
tt0317198,"Rickmansworth, Hertfordshire, England, UK",51.638763,-0.4741309999999999,movie,Bridget Jones: The Edge of Reason
tt0317198,"Ealing Studios, Ealing Green, Ealing, London, Greater London, England, UK",51.5090223,-0.3069915,movie,Bridget Jones: The Edge of Reason
tt0317198,"Headcorn Aerodrome, Headcorn, Ashford, Kent, England, UK",51.1547305,0.6438383,movie,Bridget Jones: The Edge of Reason
tt0317198,"Middle Temple, The Treasury Office, Ashley Building, Middle Temple Lane, Temple, City of London, England, UK",51.5119286,-0.1110184,movie,Bridget Jones: The Edge of Reason
tt0317198,"Primrose Hill Park, London, Greater London, England, UK",51.5395226,-0.1606499,movie,Bridget Jones: The Edge of Reason
tt0317198,"Richmond, Greater London, England, UK",51.46131099999999,-0.303742,movie,Bridget Jones: The Edge of Reason
tt0317198,"Shepperton Studios, Shepperton, Surrey, England, UK",51.4075493,-0.4636433,movie,Bridget Jones: The Edge of Reason
tt0317198,"St Bartholomew's Hospital, West Smithfield, Farringdon Without, City of London, England, UK",51.51749599999999,-0.1000463,movie,Bridget Jones: The Edge of Reason
tt0317198,"St Bartholomew-the-Great, West Smithfield, Farringdon Without, City of London, England, UK",51.5188812,-0.0996749,movie,Bridget Jones: The Edge of Reason
tt0317198,"Borough Market, 8 Southwark Street, London, Greater London, England, UK",51.5055826,-0.09048080000000001,movie,Bridget Jones: The Edge of Reason
tt0317198,"Cortina d'Ampezzo, Belluno, Veneto, Italy",46.5378431,12.1358821,movie,Bridget Jones: The Edge of Reason
tt0129290,"St. Helena, Napa Valley, California, USA",38.5052429,-122.4703868,movie,Patch Adams
tt0129290,"Biltmore Estate - 1 Approach Road, Asheville, North Carolina, USA",35.5406916,-82.55285169999999,movie,Patch Adams
tt0129290,"University of North Carolina, Chapel Hill, North Carolina, USA",35.9049122,-79.0469134,movie,Patch Adams
tt0129290,"Asheville, North Carolina, USA",35.5950581,-82.5514869,movie,Patch Adams
tt0129290,"Mare Island, Vallejo, California, USA",38.0954755,-122.2724704,movie,Patch Adams
tt0129290,"Point Richmond, California, USA",37.9252463,-122.383404,movie,Patch Adams
tt0129290,"University of California, Berkeley, California, USA",37.87015100000001,-122.2594606,movie,Patch Adams
tt0129290,"Chapel Hill, North Carolina, USA",35.9131996,-79.0558445,movie,Patch Adams
tt0129290,"San Francisco, California, USA",37.7749295,-122.4194155,movie,Patch Adams
tt0129290,"Berkeley, California, USA",37.8715226,-122.273042,movie,Patch Adams
tt0129290,"Piedmont, California, USA",37.8244063,-122.2314865,movie,Patch Adams
tt10676048,"Calabria, Italy",39.3087714,16.3463791,movie,The Marvels
tt10676048,"Tropea, Vibo Valentia, Calabria, Italy",38.67697760000001,15.8973788,movie,The Marvels
tt10676048,"Pinewood Studios, Iver Heath, Buckinghamshire, England, UK",51.5488872,-0.5319505999999999,movie,The Marvels
tt10676048,Tyrrhenian Sea,40.0769862,11.3431058,movie,The Marvels
tt10676048,"London, England, UK",51.5072178,-0.1275862,movie,The Marvels
tt10676048,"Los Angeles, California, USA",34.0549076,-118.242643,movie,The Marvels
tt10676048,"Longcross Studios, Chobham Lane, Longcross, Surrey, England, UK",51.3817001,-0.5923196,movie,The Marvels
tt10676048,"New Jersey, New Jersey, USA",40.0583238,-74.4056612,movie,The Marvels
tt1025100,"Cartagena, Colombia",10.3932277,-75.4832311,movie,Gemini Man
tt1025100,"Matthias Church, Budapest, Hungary",47.5019537,19.0341617,movie,Gemini Man
tt1025100,"Széchenyi Thermal Bath, Budapest, Hungary",47.5186568,19.0823791,movie,Gemini Man
tt1025100,"Fisherman's Bastion, Budapest, Hungary",47.5021827,19.0347813,movie,Gemini Man
tt1025100,"Heroes' Square, Budapest, Hungary",47.51494280000001,19.0778626,movie,Gemini Man
tt1025100,"Hungarian Parliament Building, Budapest, Hungary",47.507121,19.045669,movie,Gemini Man
tt1025100,"Chain Bridge, Budapest, Hungary",47.4990305,19.0438407,movie,Gemini Man
tt1025100,"Danube River, Budapest, Hungary",47.497912,19.040235,movie,Gemini Man
tt1025100,"Margaret Island, Budapest, Hungary",47.5266408,19.0463939,movie,Gemini Man
tt1025100,Hungary,47.162494,19.503304,movie,Gemini Man
tt1025100,"Origo Studios, Budapest, 1151 Budapest, Hungary",47.5813634,19.1383718,movie,Gemini Man
tt1025100,"Savannah, Georgia, USA",32.0808989,-81.091203,movie,Gemini Man
tt1025100,"Margaret Bridge, Budapest, Hungary",47.51472640000001,19.0435257,movie,Gemini Man
tt1025100,Colombia,4.570868,-74.297333,movie,Gemini Man
tt1025100,"Glennville, Georgia",31.93659169999999,-81.92845009999999,movie,Gemini Man
tt1025100,"790 West Bacon Street, Pembroke, Georgia, USA",32.13768470000001,-81.6366438,movie,Gemini Man
tt1025100,"Budapest, Hungary",47.497912,19.040235,movie,Gemini Man
tt1025100,"Liège-Guillemins Railway Station, Liège, Wallonia, Belgium",50.6244335,5.5667081,movie,Gemini Man
tt1025100,"Buttermilk Sound, Georgia, USA",31.3095372,-81.3935523,movie,Gemini Man
tt1025100,"Georgia, USA",32.1574351,-82.90712300000001,movie,Gemini Man
tt1025100,"Glennville, Georgia, USA",31.93659169999999,-81.92845009999999,movie,Gemini Man
tt1025100,"Brooklyn College - 2900 Bedford Avenue, Brooklyn, New York City, New York, USA",40.6308935,-73.951458,movie,Gemini Man
tt1025100,"Liège, Wallonia, Belgium",50.63295859999999,5.569749799999999,movie,Gemini Man
tt1025100,Belgium,50.503887,4.469936,movie,Gemini Man
tt1025100,USA,37.09024,-95.712891,movie,Gemini Man
tt5348176,"Steve Allen Theater - 4773 Hollywood Blvd, Los Feliz, Los Angeles, California, USA",34.1019389,-118.294302,tvSeries,Barry
tt5348176,"Los Angeles, California, USA",34.0549076,-118.242643,tvSeries,Barry
tt5348176,"Paramount Studios - 5555 Melrose Avenue, Hollywood, Los Angeles, California, USA",34.0843803,-118.3207067,tvSeries,Barry
tt5348176,"Los Feliz, Los Angeles, California, USA",34.1119002,-118.287462,tvSeries,Barry
tt5348176,"Hollywood, Los Angeles, California, USA",34.0907315,-118.3266146,tvSeries,Barry
tt5348176,"California, USA",36.778261,-119.4179324,tvSeries,Barry
tt5348176,USA,37.09024,-95.712891,tvSeries,Barry
tt0102510,"1400 Tower Grove Drive, Beverly Hills, California, USA",34.0975725,-118.4264335,movie,The Naked Gun 2½: The Smell of Fear
tt0102510,"S.S. Lane Victory, Pier 94, San Pedro, Los Angeles, California, USA",33.7171984,-118.2731294,movie,The Naked Gun 2½: The Smell of Fear
tt0102510,"Washington, District of Columbia, USA",38.9071923,-77.0368707,movie,The Naked Gun 2½: The Smell of Fear
tt0102510,"Los Angeles Harbor, San Pedro, Los Angeles, California, USA",33.73954589643058,-118.2599686241527,movie,The Naked Gun 2½: The Smell of Fear
tt14650074,India,20.593684,78.96288,tvSeries,Dhindora
tt2567026,"Gloucester Docks, Gloucester, Gloucestershire, England, UK",51.86292539999999,-2.2506657,movie,Alice Through the Looking Glass
tt2567026,"Shepperton Studios, Shepperton, Surrey, England, UK",51.4075493,-0.4636433,movie,Alice Through the Looking Glass
tt2567026,"Longcross Studios, Chobham Lane, Longcross, Surrey, England, UK",51.3817001,-0.5923196,movie,Alice Through the Looking Glass
tt2567026,"Horsley Towers, East Horsley, Surrey, England, UK",51.2654235,-0.4272524,movie,Alice Through the Looking Glass
tt2567026,"Ditchley Park, Enstone, Chipping Norton, Oxfordshire, England, UK",51.88760509999999,-1.4338091,movie,Alice Through the Looking Glass
tt2567026,"Syon House, Syon Park, Brentford, Middlesex, England, UK",51.4768012,-0.3124929,movie,Alice Through the Looking Glass
tt1023114,"Vakarel, Bulgaria",42.5593528,23.7097576,movie,The Way Back
tt1023114,Morocco,31.791702,-7.092619999999999,movie,The Way Back
tt1023114,"Erfoud, Morocco",31.43663339999999,-4.234383,movie,The Way Back
tt1023114,"Prohodna Cave, Karlukovo, Lukovit, Bulgaria",43.1748117,24.0742136,movie,The Way Back
tt1023114,"Darjeeling, West Bengal, India",27.0410218,88.2662745,movie,The Way Back
tt1023114,"Ouarzazate, Morocco",30.9335436,-6.937016,movie,The Way Back
tt1023114,"New Boyana Film Studios, Sofia, Bulgaria",42.6405959,23.2928704,movie,The Way Back
tt1023114,"Sofia, Bulgaria",42.6977082,23.3218675,movie,The Way Back
tt1023114,Bulgaria,42.733883,25.48583,movie,The Way Back
tt1023114,India,20.593684,78.96288,movie,The Way Back
tt0422720,"Chateau de Versailles, Versailles, Yvelines, France",48.8048649,2.1203554,movie,Marie Antoinette
tt0422720,"Opéra National de Paris Palais Garnier, 8 rue Scribe, Paris 9, Paris, France",48.8719697,2.3316014,movie,Marie Antoinette
tt0422720,"Fontainebleau, Seine-et-Marne, France",48.40467599999999,2.70162,movie,Marie Antoinette
tt0422720,"Château de Chantilly, Chantilly, Oise, France",49.19384669999999,2.4852034,movie,Marie Antoinette
tt0422720,"Vaux-le-Vicomte, Seine-et-Marne, France",48.565812,2.714135,movie,Marie Antoinette
tt0422720,"Basildon Park, Lower Basildon, Berkshire, England, UK",51.4991315,-1.1214603,movie,Marie Antoinette
tt0422720,"Chateau de Millemont, Millemont, Yvelines, France",48.8074381,1.7385952,movie,Marie Antoinette
tt0422720,"Hotel du Soubise, Paris, France",48.8657072,2.3311978,movie,Marie Antoinette
tt0422720,"Lycee Hoche, Versailles, Yvelines, France",48.8057514,2.1367624,movie,Marie Antoinette
tt0422720,"Pinewood Studios, Iver Heath, Buckinghamshire, England, UK",51.5488872,-0.5319505999999999,movie,Marie Antoinette
tt0422720,"Formal gardens, Château de Versailles, Place d'Armes, Versailles, Yvelines, France",48.8058749,2.1162814,movie,Marie Antoinette
tt0422720,"The Hall of Mirrors, Château de Versailles, Place d'Armes, Versailles, Yvelines, France",48.8048324,2.120271,movie,Marie Antoinette
tt0422720,"Petit Trianon, Château de Versailles, Place d'Armes, Versailles, Yvelines, France",48.8156399,2.1096665,movie,Marie Antoinette
tt0422720,"Belvedere, Vienna, Austria",48.19147510000001,16.3809322,movie,Marie Antoinette
tt0422720,"Paris, France",48.856614,2.3522219,movie,Marie Antoinette
tt0422720,"Hameau de la Reine, Château de Versailles, Place d'Armes, Versailles, Yvelines, France",48.8192668,2.1131031,movie,Marie Antoinette
tt0422720,"Salon of Madame Mère, Petit Trianon, Château de Versailles, Place d'Armes, Versailles, Yvelines, France",48.8156399,2.1096665,movie,Marie Antoinette
tt0071360,"American Roofing Co. Building - 297 Kansas Street, Potrero Hill, San Francisco, California, USA",37.7662435,-122.4031255,movie,The Conversation
tt0071360,"Union Square, San Francisco, California, USA",37.787552,-122.4066183,movie,The Conversation
tt0071360,"Alta Plaza Park, Steiner Street, San Francisco, California, USA",37.79120899999999,-122.4377047,movie,The Conversation
tt0071360,"Cathedral Hill Hote - 1101 Van Ness Avenue, Cathedral Hill, San Francisco, California, USA",37.7857507,-122.4177262,movie,The Conversation
tt0071360,"Financial District, San Francisco, California, USA",37.7936658,-122.3964729,movie,The Conversation
tt0071360,"Neiman Marcus Union Square Store - 150 Stockton Street, San Francisco, California, USA",37.7873324,-122.4061984,movie,The Conversation
tt0071360,"One Maritime Plaza, Financial District, San Francisco, California, USA",37.7956599,-122.3992066,movie,The Conversation
tt0071360,"Alamo Square, Hayes Valley, San Francisco, California, USA",37.77606249999999,-122.4295929,movie,The Conversation
tt0071360,"One Embarcadero Center, San Francisco, California, USA",37.7946507,-122.3998262,movie,The Conversation
tt0071360,"Saks Fifth Avenue Building - 384 Post Street, San Francisco, California, USA",37.7886078,-122.4081552,movie,The Conversation
tt0071360,"San Francisco, California, USA",37.7749295,-122.4194155,movie,The Conversation
tt0071360,"Westin St. Francis Hotel - 335 Powell Street, San Francisco, California, USA",37.7876827,-122.4087648,movie,The Conversation
tt0071360,"Hayes Valley, San Francisco, California, USA",37.77606249999999,-122.4295929,movie,The Conversation
tt0071360,"Potrero Hill, San Francisco, California, USA",37.7597412,-122.4011391,movie,The Conversation
tt0071360,"Alcoa Building - 1 Maritime Plaza, San Francisco, California, USA",37.7956599,-122.3992066,movie,The Conversation
tt0071360,"Cathedral Hill, San Francisco, California, USA",37.7854351,-122.4247342,movie,The Conversation
tt0071360,"California, USA",36.778261,-119.4179324,movie,The Conversation
tt0071360,"St. Patrick's Catholic Church, 756 Mission St, San Francisco, CA, USA",37.7855783,-122.403558,movie,The Conversation
tt0071360,USA,37.09024,-95.712891,movie,The Conversation
tt1179034,"Paris, France",48.856614,2.3522219,movie,From Paris with Love
tt1179034,"Studio Sets, Stains, Seine-Saint-Denis, France",48.9611372,2.3736933,movie,From Paris with Love
tt1179034,"Voie Georges Pompidou, Paris 1, Paris, France",48.8594436,2.3366517,movie,From Paris with Love
tt1179034,"Voie Georges Pompidou, Paris 4, Paris, France",48.854158,2.354732,movie,From Paris with Love
tt1179034,"Avenue de New York, Paris 16, Paris, France",48.8621913,2.2934058,movie,From Paris with Love
tt1179034,"Cours Albert 1er, Paris 8, Paris, France",48.864673,2.3067565,movie,From Paris with Love
tt1179034,"Cours la Reine, Paris 8, Paris, France",48.8648402,2.3141279,movie,From Paris with Love
tt1179034,"Observatoire de Paris, 77 avenue Denfert-Rochereau, Paris 14, Paris, France",48.83596530000001,2.334253,movie,From Paris with Love
tt1179034,"46 avenue d'Ivry, Paris 13, Paris, France",48.8235825,2.3656837,movie,From Paris with Love
tt1179034,"Rue Baudricourt, Paris 13, Paris, France",48.8262535,2.3634459,movie,From Paris with Love
tt1179034,"Avenue de Choisy, Paris 13, Paris, France",48.8258093,2.3602155,movie,From Paris with Love
tt1179034,"Eiffel Tower, Paris, France",48.85837009999999,2.2944813,movie,From Paris with Love
tt1179034,"Rue Saint-Denis, Paris 2, Paris, France",48.8637341,2.3500354,movie,From Paris with Love
tt1179034,"Passage Lemoine, 230 rue saint-Denis, Paris 2, Paris, France",48.8686474,2.3521963,movie,From Paris with Love
tt1179034,"Rue du Faubourg Saint-Martin, Paris 10, Paris, France",48.8768338,2.3610189,movie,From Paris with Love
tt1179034,"La Coudraie, Poissy, Yvelines, France",48.91892,2.0128,movie,From Paris with Love
tt1179034,"Pont des Arts, Paris 6, Paris, France",48.85834240000001,2.3375084,movie,From Paris with Love
tt1179034,"Paris Charles de Gaulle Airport, Roissy-en-France, Val-d'Oise, France",49.0078597,2.5507715,movie,From Paris with Love
tt1179034,"Rue Saint-Dominique, Paris 7, Paris, France",48.857755,2.3004003,movie,From Paris with Love
tt1179034,"Autoroute A41, au nord d'Annecy, Annecy, Haute-Savoie, France",45.865743,6.0590829,movie,From Paris with Love
tt2139881,"Cartagena, Colombia",10.3932277,-75.4832311,movie,Long Shot
tt2139881,"Montreal, Québec, Canada",45.5018869,-73.56739189999999,movie,Long Shot
tt2139881,Colombia,4.570868,-74.297333,movie,Long Shot
tt2139881,Canada,56.130366,-106.346771,movie,Long Shot
tt1524930,"Six Flags Over Georgia - 7561 Six Flags Parkway, Austell, Georgia, USA",33.7683499,-84.5500261,movie,Vacation
tt1524930,"Charlotte, North Carolina, USA",35.2270869,-80.8431267,movie,Vacation
tt1524930,"North Carolina, USA",35.7595731,-79.01929969999999,movie,Vacation
tt1524930,"Kanab, Utah, USA",37.0474855,-112.5263145,movie,Vacation
tt1524930,"Historic Navajo Bridge - Highway 89A, Marble Canyon, Arizona, USA",36.8175907,-111.6311514,movie,Vacation
tt1524930,"Georgia World Congress Center, Atlanta, Georgia, USA",33.7603931,-84.4023632,movie,Vacation
tt1524930,"Atlanta, Georgia, USA",33.748752,-84.38768449999999,movie,Vacation
tt1524930,"Covington, Georgia, USA",33.5967815,-83.8601827,movie,Vacation
tt1524930,"Chicago, Illinois, USA",41.8781136,-87.6297982,movie,Vacation
tt1524930,"San Francisco, California, USA",37.7749295,-122.4194155,movie,Vacation
tt1524930,"Page, Arizona, USA",36.91472220000001,-111.4558333,movie,Vacation
tt1524930,"Mojave Desert, Arizona, USA",34.0489281,-111.0937311,movie,Vacation
tt3606752,"Pixar Animation Studios - 1200 Park Avenue, Emeryville, California, USA",37.8326602,-122.2837233,movie,Cars 3
tt3606752,"Walt Disney Studios, 500 South Buena Vista Street, Burbank, California, USA",34.156207,-118.325189,movie,Cars 3
tt3606752,"Walt Disney Feature Animation - 500 S. Buena Vista Street, Burbank, California, USA",34.1583481,-118.3249137,movie,Cars 3
tt3606752,"Los Angeles, California, USA",34.0549076,-118.242643,movie,Cars 3
tt3606752,"Miami, Florida, USA",25.7616798,-80.1917902,movie,Cars 3
tt0031679,"Lincoln Memorial, National Mall, Washington, District of Columbia, USA",38.8892686,-77.050176,movie,Mr. Smith Goes to Washington
tt0031679,"Union Station - 50 Massachusetts Avenue NE, Washington, District of Columbia, USA",38.89832020000001,-77.00611359999999,movie,Mr. Smith Goes to Washington
tt0031679,"United States Capitol - 545 Seventh Street SE, Washington, District of Columbia, USA",38.8815451,-76.9963921,movie,Mr. Smith Goes to Washington
tt0031679,"Columbia/Sunset Gower Studios - 1438 N. Gower Street, Hollywood, Los Angeles, California, USA",34.0965452,-118.3213654,movie,Mr. Smith Goes to Washington
tt0031679,"Los Angeles, California, USA",34.0549076,-118.242643,movie,Mr. Smith Goes to Washington
tt0031679,"Washington, District of Columbia, USA",38.9071923,-77.0368707,movie,Mr. Smith Goes to Washington
tt0240890,"Serendipity 3 - 225 E 60th Street, Manhattan, New York City, New York, USA",40.761848,-73.964894,movie,Serendipity
tt0240890,"Studio City Toronto - 915 Lake Shore Boulevard E, Toronto, Ontario, Canada",43.6553695,-79.3343287,movie,Serendipity
tt0240890,"Uxbridge, Ontario, Canada",44.10940280000001,-79.12049979999999,movie,Serendipity
tt0240890,"Central Park, Manhattan, New York City, New York, USA",40.7825547,-73.9655834,movie,Serendipity
tt0240890,"Toronto, Ontario, Canada",43.653226,-79.3831843,movie,Serendipity
tt0240890,Canada,56.130366,-106.346771,movie,Serendipity
tt0240890,"Ontario, Canada",51.253775,-85.3232139,movie,Serendipity
tt0240890,"Waldorf-Astoria Hotel - 301 Park Avenue, Manhattan, New York City, New York, USA",40.7562423,-73.9728559,movie,Serendipity
tt0240890,"Wollman Skating Rink - 830 5th Ave., New York City, New York, USA",40.7677792,-73.9744673,movie,Serendipity
tt0240890,"Newark Liberty International Airport - 10 Toler Place, Newark, New Jersey, USA",40.7097658,-74.19046039999999,movie,Serendipity
tt0240890,"San Francisco, California, USA",37.7749295,-122.4194155,movie,Serendipity
tt0240890,"Manhattan, New York City, New York, USA",40.7830603,-73.9712488,movie,Serendipity
tt0240890,"Newark, New Jersey, USA",40.735657,-74.1723667,movie,Serendipity
tt0240890,"California, USA",36.778261,-119.4179324,movie,Serendipity
tt0240890,"New Jersey, USA",40.0583238,-74.4056612,movie,Serendipity
tt0240890,"New York City, New York, USA",40.7127753,-74.0059728,movie,Serendipity
tt0240890,"New York, USA",40.7127753,-74.0059728,movie,Serendipity
tt0240890,USA,37.09024,-95.712891,movie,Serendipity
tt0907657,"Mountjoy Square East, Dublin, Ireland",53.3569572,-6.2564782,movie,Once
tt0907657,"Georges Street, Dublin, County Dublin, Ireland",53.3427392,-6.2644465,movie,Once
tt0907657,"Dunnes Stores, 62 Grafton St, Dublin, Ireland",53.3406408,-6.2610531,movie,Once
tt0907657,"Simon's Place Coffee Shop, 22 George's St Arcade, S.Great George's St., Dublin, Ireland",53.3425832,-6.2642776,movie,Once
tt0907657,"Kiliney, County Dublin, Ireland",53.2650114,-6.1149485,movie,Once
tt0907657,"St. Stephen's Green, Dublin, County Dublin, Ireland",53.3369532,-6.259999,movie,Once
tt0907657,"Grafton Street, Dublin, County Dublin, Ireland",53.3416362,-6.2601859,movie,Once
tt0907657,"Dublin Airport, Dublin, County Dublin, Ireland",53.425632,-6.257375499999999,movie,Once
tt0055614,"110th Street, Manhattan, New York City, New York, USA",40.798713,-73.9535691,movie,West Side Story
tt0055614,"West 68th Street, Manhattan, New York City, New York, USA",40.776056,-73.9835014,movie,West Side Story
tt0055614,"Church of Saint Paul the Apostle, Columbus Avenue & West 60th Street, New York City, New York, USA",40.7697486,-73.98549280000002,movie,West Side Story
tt0055614,"Stuyvesant Town, Manhattan, New York City, New York, USA",40.7316903,-73.9778494,movie,West Side Story
tt0055614,"Samuel Goldwyn Studios - 7200 Santa Monica Boulevard, West Hollywood, California, USA",34.0906213,-118.3481971,movie,West Side Story
tt0055614,"New York City, New York, USA",40.7127753,-74.0059728,movie,West Side Story
tt0055614,"Los Angeles, California, USA",34.0549076,-118.242643,movie,West Side Story
tt0795368,"Poynatts Manor, Skirmett, Buckinghamshire, England, UK",51.601024,-0.8804799999999999,movie,Death at a Funeral
tt0795368,"Ealing Studios, Ealing, London, England, UK",51.5090223,-0.3069915,movie,Death at a Funeral
tt0795368,"London, England, UK",51.5072178,-0.1275862,movie,Death at a Funeral
tt0795368,"England, UK",52.3555177,-1.1743197,movie,Death at a Funeral
tt0795368,UK,55.378051,-3.435973,movie,Death at a Funeral
tt0112461,"Forest Hills High School, Forest Hills, Queens, New York City, New York, USA",40.7297115,-73.84492589999999,movie,The Basketball Diaries
tt0112461,"242 E 72nd Street, New York City, New York, USA",40.7688759,-73.9590898,movie,The Basketball Diaries
tt0112461,"2400 Johnson Avenue, Bronx, New York USA",40.8763984,-73.91846919999999,movie,The Basketball Diaries
tt0112461,"Hoboken, New Jersey, USA",40.7439905,-74.0323626,movie,The Basketball Diaries
tt0112461,"15505 Northern Blvd, Flushing, Queens, New York, USA",40.764587,-73.8097872,movie,The Basketball Diaries
tt0112461,"Staten Island Ferry, New York, USA",40.6725832,-74.0438277,movie,The Basketball Diaries
tt0112461,"Times Square, Manhattan, New York City, New York, USA",40.7579747,-73.9855426,movie,The Basketball Diaries
tt0112461,"Queens, New York City, New York, USA",40.7282239,-73.7948516,movie,The Basketball Diaries
tt0112461,"New York City, New York, USA",40.7127753,-74.0059728,movie,The Basketball Diaries
tt0112461,"New York, USA",40.7127753,-74.0059728,movie,The Basketball Diaries
tt0112461,USA,37.09024,-95.712891,movie,The Basketball Diaries
tt0112461,"108-30 67th Ave, Flushing, NY 11375, USA",40.72911440000001,-73.8463861,movie,The Basketball Diaries
tt0104694,"Bosse Field - 1701 N. Main Street, Evansville, Indiana, USA",37.9929449,-87.5622992,movie,A League of Their Own
tt0104694,"Evansville, Indiana, USA",37.9715592,-87.5710898,movie,A League of Their Own
tt0104694,"Huntingburg, Indiana, USA",38.2989422,-86.9549971,movie,A League of Their Own
tt0104694,"Jay Littleton Ball Park - 1076 North Grove Avenue, Ontario, California, USA",34.0770045,-117.6286437,movie,A League of Their Own
tt0104694,"Wrigley Field - 1060 W. Addison St., Lake View, Chicago, Illinois, USA",41.9484384,-87.6553327,movie,A League of Their Own
tt0104694,"Illinois Railway Museum - 7000 Olson Rd., Union, Illinois, USA",42.2276139,-88.52754949999999,movie,A League of Their Own
tt0104694,"Cooperstown, New York, USA",42.7006303,-74.92432099999999,movie,A League of Their Own
tt0104694,"Cantigny War Memorial Museum, Wheaton, IL 60189 USA",41.8539608,-88.157765,movie,A League of Their Own
tt0104694,"Henderson, Kentucky, USA",37.8361538,-87.59001339999999,movie,A League of Their Own
tt0104694,"Hornville Tavern - 2607 W. Baseline Road, Evansville, Indiana, USA",38.131156,-87.6011453,movie,A League of Their Own
tt0104694,"Indiana, USA",39.768403,-86.158068,movie,A League of Their Own
tt0104694,"New Harmony, Indiana, USA",38.1297678,-87.93502989999999,movie,A League of Their Own
tt0104694,"Fitzgerald's - 6615 West Roosevelt Road, Berwyn, Illinois, USA",41.8650444,-87.7899233,movie,A League of Their Own
tt0104694,"League Stadium - 1st & Cherry Streets, Huntingburg, Indiana, USA",38.2897851,-86.9451971,movie,A League of Their Own
tt0104694,"Dedeaux Field - 1021 Childs Way, University of Southern California, Los Angeles, California, USA",34.0238376,-118.2898635,movie,A League of Their Own
tt0104694,"Los Angeles, California, USA",34.0549076,-118.242643,movie,A League of Their Own
tt0104694,"Union, Illinois, USA",42.2330782,-88.5423132,movie,A League of Their Own
tt0200550,"South Amboy, New Jersey, USA",40.4778838,-74.290702,movie,Coyote Ugly
tt0200550,"Atlantic Beach, Long Island, New York, USA",40.58899359999999,-73.72902069999999,movie,Coyote Ugly
tt0200550,"101 S. Broadway, South Amboy, New Jersey, USA",40.4832312,-74.279667,movie,Coyote Ugly
tt0200550,"New York City, New York, USA",40.7127753,-74.0059728,movie,Coyote Ugly
tt0200550,"Tower Theatre - 802 S. Broadway, Downtown, Los Angeles, California, USA",34.0435058,-118.2545171,movie,Coyote Ugly
tt0200550,"South Amboy Knights of Columbus, 308 Fourth Street, South Amboy, New Jersey, USA",40.4842823,-74.2875818,movie,Coyote Ugly
tt0200550,"PATH Lift Bridge, Kearny & Jersey City, New Jersey, USA",40.7684342,-74.1454214,movie,Coyote Ugly
tt0200550,"The Cheesequake Creek Morgan Drawbridge, South Amboy & Old Bridge, New Jersey, USA",40.4616394,-74.2596757,movie,Coyote Ugly
tt0200550,"New Jersey, USA",40.0583238,-74.4056612,movie,Coyote Ugly
tt0200550,"Ambassador Hotel - 3400 Wilshire Boulevard, Los Angeles, California, USA",34.0605583,-118.2980306,movie,Coyote Ugly
tt0200550,"Los Angeles Theatre - 615 S. Broadway, Downtown, Los Angeles, California, USA",34.046444,-118.2526466,movie,Coyote Ugly
tt0200550,"Downtown, Los Angeles, California, USA",34.055691,-118.2487702,movie,Coyote Ugly
tt0200550,"Los Angeles, California, USA",34.0549076,-118.242643,movie,Coyote Ugly
tt0200550,"California, USA",36.778261,-119.4179324,movie,Coyote Ugly
tt0200550,"New York, USA",40.7127753,-74.0059728,movie,Coyote Ugly
tt0200550,USA,37.09024,-95.712891,movie,Coyote Ugly
tt0421073,"Habachihana Grill - 1045 S. Hill Street, Los Angeles, California, USA",34.0406641,-118.259558,movie,Street Kings
tt0421073,"7456 Sale Avenue, West Hills, Los Angeles, California, USA",34.206286,-118.6193875,movie,Street Kings
tt0421073,"Pacific Dining Car - 1310 W. 6th. St, Los Angeles, California, USA",34.0554919,-118.2660332,movie,Street Kings
tt0421073,"Union Liquor Store - 1703 Beverly Boulevard, Los Angeles, California, USA",34.0649271,-118.2659774,movie,Street Kings
tt0421073,"Los Angeles City Hall - 200 North Spring Street, Downtown, Los Angeles, California, USA",34.0537136,-118.2426533,movie,Street Kings
tt0421073,"Los Angeles County Department of Medical Examiner-Coroner - 1104 N. Mission Road, Los Angeles, California, USA",34.0607705,-118.2132018,movie,Street Kings
tt0421073,"1432 E. 49th. Street, Los Angeles, California, USA",33.9982341,-118.2491247,movie,Street Kings
tt0421073,"Prince Albert Liquor Store - 1161 E. Vernon Avenue, Los Angeles, California, USA",34.0041218,-118.2549956,movie,Street Kings
tt0421073,"Hollywood Forever Cemetery - 6000 Santa Monica Blvd., Hollywood, Los Angeles, California, USA",34.0888841,-118.319063,movie,Street Kings
tt0421073,"Jefferson Park, Los Angeles, California, USA",34.0326552,-118.3177174,movie,Street Kings
tt0421073,"Southern California, California, USA",34.9592083,-116.419389,movie,Street Kings
tt0421073,"Midtown, Los Angeles, California, USA",34.0479314,-118.3355314,movie,Street Kings
tt0421073,"Los Angeles County, California, USA",34.3871821,-118.1122679,movie,Street Kings
tt0421073,"Downtown, Los Angeles, California, USA",34.055691,-118.2487702,movie,Street Kings
tt0169102,"Bhuj, Gujarat, India",23.2419997,69.6669324,movie,Lagaan: Once Upon a Time in India
tt0169102,"Phoenix, Arizona, USA",33.4483771,-112.0740373,movie,Lagaan: Once Upon a Time in India
tt0169102,"London, Greater London, England, UK",51.5072178,-0.1275862,movie,Lagaan: Once Upon a Time in India
tt0169102,"Vijaya Vilas Palace, Mandvi, Gujarat, India",22.8342524,69.28480230000001,movie,Lagaan: Once Upon a Time in India
tt0169102,"Prag Mahal, Bhuj, Gujarat, India",23.2546312,69.6684909,movie,Lagaan: Once Upon a Time in India
tt0061418,"Red Oak, Texas, USA",32.5332101,-96.8153,movie,Bonnie and Clyde
tt0061418,"Rowlett, Texas, USA",32.9029017,-96.56388,movie,Bonnie and Clyde
tt0061418,"Waxahachie, Texas, USA",32.3865312,-96.8483311,movie,Bonnie and Clyde
tt0061418,"Denton, Texas, USA",33.2148412,-97.13306829999999,movie,Bonnie and Clyde
tt0061418,"Garland, Texas, USA",32.912624,-96.63888329999999,movie,Bonnie and Clyde
tt0061418,"Midlothian, Texas, USA",32.475335,-97.01031809999999,movie,Bonnie and Clyde
tt0061418,"Pilot Point, Texas, USA",33.396503,-96.9605608,movie,Bonnie and Clyde
tt0061418,"Dallas, Texas, USA",32.7766642,-96.79698789999999,movie,Bonnie and Clyde
tt0061418,"Trinity River, Texas, USA",29.7430556,-94.70333330000001,movie,Bonnie and Clyde
tt0061418,"Venus, Texas, USA",32.4334742,-97.10250769999999,movie,Bonnie and Clyde
tt0061418,"Maypearl, Texas, USA",32.3114105,-97.0149292,movie,Bonnie and Clyde
tt0061418,"Lemmon Lake, Texas, USA",32.6961134,-96.7303329,movie,Bonnie and Clyde
tt0061418,"Ponder, Texas, USA",33.1828974,-97.2872402,movie,Bonnie and Clyde
tt0061418,"Stage 1, Warner Brothers Burbank Studios - 4000 Warner Boulevard, Burbank, California, USA",34.1487314,-118.3386863,movie,Bonnie and Clyde
tt0061418,"Crandall, Texas, USA",32.6279113,-96.4558196,movie,Bonnie and Clyde
tt0061418,"Stage 11, Warner Brothers Burbank Studios - 4000 Warner Boulevard, Burbank, California, USA",34.1487314,-118.3386863,movie,Bonnie and Clyde
tt0061418,"Stage 25, Warner Brothers Burbank Studios - 4000 Warner Boulevard, Burbank, California, USA",34.1484407,-118.3378579,movie,Bonnie and Clyde
tt0061418,"Stage 4, Warner Brothers Burbank Studios - 4000 Warner Boulevard, Burbank, California, USA",34.1487314,-118.3386863,movie,Bonnie and Clyde
tt0061418,"Lavon, Texas, USA",33.0276193,-96.4341524,movie,Bonnie and Clyde
tt0061418,"Albertson Ranch, Triunfo, California, USA",36.778261,-119.4179324,movie,Bonnie and Clyde
tt0061418,"Midwest Street, Warner Brothers Burbank Studios - 4000 Warner Boulevard, Burbank, California, USA",34.1487314,-118.3386863,movie,Bonnie and Clyde
tt0064665,"Calvary Cemetery - 4902 Laurel Hill Boulevard, Queens, New York City, New York, USA",40.7352225,-73.9135952,movie,Midnight Cowboy
tt0064665,"Barclay Hotel - 700 5th Avenue, Manhattan, New York City, New York, USA",40.7556629,-73.9735276,movie,Midnight Cowboy
tt0064665,"114 East 72nd Street, Manhattan, New York City, New York, USA",40.77063769999999,-73.9631974,movie,Midnight Cowboy
tt0064665,"117 E. 70th Street, Manhattan, New York City, New York, USA",40.7695635,-73.96379540000001,movie,Midnight Cowboy
tt0064665,"Interstate 20 & Weaver Road, Big Spring, Texas, USA",32.2633177,-101.4584015,movie,Midnight Cowboy
tt0064665,"Filmways Studios - 246 East 127th Street, East Harlem, Manhattan, New York City, New York, USA",40.804573,-73.9338566,movie,Midnight Cowboy
tt0064665,"Times Square, Manhattan, New York City, New York, USA",40.7579747,-73.9855426,movie,Midnight Cowboy
tt0064665,"Lincoln Tunnel, New York City, New York, USA",40.7628647,-74.0096695,movie,Midnight Cowboy
tt0064665,"112 Mercer Street, Manhattan, New York City, New York, USA",40.7235196,-73.9990316,movie,Midnight Cowboy
tt0064665,"2120 Broadway, Manhattan, New York City, New York, USA",40.7802859,-73.981117,movie,Midnight Cowboy
tt0064665,"Tiffany & Co. - 727 Fifth Avenue at 57th Street, Manhattan, New York City, New York, USA",40.7626931,-73.9739144,movie,Midnight Cowboy
tt0064665,"Hotel Claridge - 1502 Broadway, New York City, New York, USA",40.7567926,-73.98567129999999,movie,Midnight Cowboy
tt0064665,"64-66 Suffolk Street, Manhattan, New York City, New York, USA",40.7178204,-73.9867027,movie,Midnight Cowboy
tt0064665,"605 Amsterdam Avenue, Manhattan, New York City, New York, USA",40.76087200000001,-73.99489799999999,movie,Midnight Cowboy
tt0064665,"22 E. 66th Street, Manhattan, New York City, New York, USA",40.76796299999999,-73.9687808,movie,Midnight Cowboy
tt0064665,"1 Central Park S, Manhattan, New York City, New York, USA",40.7646573,-73.9744439,movie,Midnight Cowboy
tt0064665,"237 W 42nd St, New York, NY 10036, USA",40.7568622,-73.98841279999999,movie,Midnight Cowboy
tt0064665,"1415 Tonnele Avenue, North Bergen, New Jersey, USA",40.7658687,-74.0478672,movie,Midnight Cowboy
tt0064665,"1000 East 3rd Street, Big Spring, Texas, USA",32.256447,-101.466368,movie,Midnight Cowboy
tt0064665,"Great Southern Hotel, Young Circle, Hollywood, Broward County, Florida, USA",26.01223,-80.143988,movie,Midnight Cowboy
tt0064665,"4833 Collins Avenue, Miami Beach, Dade County, Florida, USA",25.8241972,-80.12148839999999,movie,Midnight Cowboy
tt0064665,"602 West 3rd Street, Big Spring, Texas, USA",32.255248,-101.485037,movie,Midnight Cowboy
tt0064665,"309 Northwest 4th Street, Big Spring, Texas, USA",32.2567857,-101.4830528,movie,Midnight Cowboy
tt0064665,"Julia Tuttle Causeway, Miami Beach, Dade County, Florida, USA",25.8106116,-80.1536412,movie,Midnight Cowboy
tt0064665,"4747 Collins Avenue, Miami Beach, Dade County, Florida, USA",25.8217974,-80.1217461,movie,Midnight Cowboy
tt0064665,"Great Southern Hotel - North Young Circle, Hollywood, Florida, USA",26.01223,-80.143988,movie,Midnight Cowboy
tt0064665,"114 W. 72nd. Street, Manhattan, New York City, New York, USA",40.7774016,-73.97943169999999,movie,Midnight Cowboy
tt0064665,"Miami Beach, Florida, USA",25.790654,-80.1300455,movie,Midnight Cowboy
tt0064665,"191 Doremus Avenue, Newark, New Jersey, USA",40.7268959,-74.1239042,movie,Midnight Cowboy
tt0064665,"2600 Tonnele Avenue, North Bergen, New Jersey, USA",40.773276,-74.0409238,movie,Midnight Cowboy
tt0064665,"608 Fifth Avenue, Manhattan, New York City, New York, USA",40.7577687,-73.97802390000001,movie,Midnight Cowboy
tt0064665,"645 Fifth Avenue, Manhattan, New York City, New York, USA",40.7592029,-73.976258,movie,Midnight Cowboy
tt0064665,"Park Avenue and East 68th Street, Manhattan, New York City, New York, USA",40.768501,-73.9655918,movie,Midnight Cowboy
tt0064665,"1740 Broadway, Manhattan, New York City, New York, USA",40.7651145,-73.9814962,movie,Midnight Cowboy
tt0064665,"47th-50th Streets - Rockefeller Center Station, Manhattan, New York City, New York, USA",40.75885,-73.98118610000002,movie,Midnight Cowboy
tt0064665,"209 West 42nd Street, Manhattan, New York City, New York, USA",40.7563739,-73.9874975,movie,Midnight Cowboy
tt0064665,"234 West 42nd Street, Manhattan, New York City, New York, USA",40.7566328,-73.9887914,movie,Midnight Cowboy
tt0064665,"1671 Broadway, Manhattan, New York City, New York, USA",40.7629584,-73.9835794,movie,Midnight Cowboy
tt0064665,"9th Avenue and West 39th Street, Manhattan, New York City, New York, USA",40.7565493,-73.9940417,movie,Midnight Cowboy
tt0064665,"228 West 42nd Street, Manhattan, New York City, New York, USA",40.7565877,-73.9882307,movie,Midnight Cowboy
tt1067583,"Chickamauga, Georgia, USA",34.8711879,-85.2907896,movie,Water for Elephants
tt1067583,"Tennessee Valley Railroad, Chattanooga, Tennessee, USA",35.0678885,-85.2061671,movie,Water for Elephants
tt1067583,"Chattanooga, Tennessee, USA",35.0457984,-85.3093995,movie,Water for Elephants
tt1067583,"Fillmore, California, USA",34.3991639,-118.918154,movie,Water for Elephants
tt1067583,"Piru, California, USA",34.4152743,-118.7939824,movie,Water for Elephants
tt1067583,"Los Angeles, California, USA",34.0549076,-118.242643,movie,Water for Elephants
tt1067583,"20th Century Fox Studios - 10201 Pico Blvd., Century City, Los Angeles, California, USA",34.0523198,-118.4126303,movie,Water for Elephants
tt1067583,"Tennessee, USA",35.5174913,-86.5804473,movie,Water for Elephants
tt1067583,USA,37.09024,-95.712891,movie,Water for Elephants
tt1067583,"Century City, Los Angeles, California, USA",34.0531973,-118.4162157,movie,Water for Elephants
tt1067583,"Georgia, USA",32.1574351,-82.90712300000001,movie,Water for Elephants
tt1067583,"California, USA",36.778261,-119.4179324,movie,Water for Elephants
tt0105112,"1920 Scientists Cliff Road, Port Republic, Maryland, USA",38.5304303,-76.51899350000001,movie,Patriot Games
tt0105112,"CIA Headquarters, Langley, Virginia, USA",38.9464996,-77.1588685,movie,Patriot Games
tt0105112,"Calvert County, Maryland, USA",38.49495030000001,-76.5025742,movie,Patriot Games
tt0105112,"Old Royal Naval College, King William Walk, Greenwich, London, Greater London, England, UK",51.4827142,-0.0066964,movie,Patriot Games
tt0105112,"Morro Bay, California, USA",35.3659445,-120.8499924,movie,Patriot Games
tt0105112,"Anne Arundel County, Maryland, USA",38.9530109,-76.5488232,movie,Patriot Games
tt0105112,"U.S. Naval Academy - 121 Blake Road, Annapolis, Maryland, USA",38.98206580000001,-76.4839405,movie,Patriot Games
tt0105112,"Rancho Palos Verdes, California, USA",33.7444613,-118.3870173,movie,Patriot Games
tt0105112,"Aldwych Underground Railway Station, Surrey Street, Aldwych, Westminster, Greater London, England, UK",51.51251240000001,-0.1185655,movie,Patriot Games
tt0105112,"Annapolis, Maryland, USA",38.9784453,-76.4921829,movie,Patriot Games
tt0105112,"Imperial County, California, USA",33.0113694,-115.4733554,movie,Patriot Games
tt0105112,"London, Greater London, England, UK",51.5072178,-0.1275862,movie,Patriot Games
tt0105112,"Burlington Arcade, Piccadilly, Mayfair, Westminster, Greater London, England, UK",51.5083408,-0.1395758,movie,Patriot Games
tt0105112,"Canary Wharf, Isle of Dogs, London, Greater London, England, UK",51.4929146,-0.0247395,movie,Patriot Games
tt0105112,"Pinewood Studios, Pinewood Road, Iver Heath, Iver, Buckinghamshire, England, UK",51.5488872,-0.5319505999999999,movie,Patriot Games
tt0105112,"El Segundo, California, USA",33.9191799,-118.4164652,movie,Patriot Games
tt0105112,"Brawley, California, USA",32.9786566,-115.530267,movie,Patriot Games
tt0105112,"Mission Bay, San Diego, California, USA",32.7805494,-117.2426259,movie,Patriot Games
tt0105112,"Washington, District of Columbia, USA",38.9071923,-77.0368707,movie,Patriot Games
tt0105112,"Belgrave Square, Belgravia, Westminster, Greater London, England, UK",51.4985756,-0.152791,movie,Patriot Games
tt0105112,"California, USA",36.778261,-119.4179324,movie,Patriot Games
tt0105112,USA,37.09024,-95.712891,movie,Patriot Games
tt0105112,"The Reading & Writing Room, One Whitehall Place, 1 Whitehall Place, Westminster, Greater London, England, UK",51.5054488,-0.1241456,movie,Patriot Games
tt0105112,"Beverly Vista Middle School - 200 S Elm Dr, Beverly Hills, California, USA",34.0642734,-118.3941593,movie,Patriot Games
tt0105112,"Queen of Angels Hospital - 2301 Bellevue Avenue, Los Angeles, California, USA",34.074785,-118.2703539,movie,Patriot Games
tt0105112,"One Whitehall Place, 1 Whitehall Place, Westminster, Greater London, England, UK",51.5054488,-0.1241456,movie,Patriot Games
tt0105112,"1 Whitehall Place, Westminster, Greater London, England, UK",51.5063707,-0.1235313,movie,Patriot Games
tt0105112,"Belgravia, Westminster, Greater London, England, UK",51.4982272,-0.1535489,movie,Patriot Games
tt0105112,"Piccadilly, Mayfair, Westminster, Greater London, England, UK",51.5065242,-0.1434166,movie,Patriot Games
tt0105112,"Mayfair, Westminster, Greater London, England, UK",51.5116269,-0.147806,movie,Patriot Games
tt0105112,"Whitehall Place, Westminster, Greater London, England, UK",51.5061499,-0.1248005,movie,Patriot Games
tt0105112,"Surrey Street, Aldwych, Westminster, Greater London, England, UK",51.5116951,-0.1153196,movie,Patriot Games
tt0105112,"Aldwych, Westminster, Greater London, England, UK",51.5132441,-0.1172819,movie,Patriot Games
tt0105112,"Isle of Dogs, London, Greater London, England, UK",51.4966118,-0.0146551,movie,Patriot Games
tt0105112,"King William Walk, Greenwich, London, Greater London, England, UK",51.4809629,-0.0079176,movie,Patriot Games
tt0105112,"Greenwich, London, Greater London, England, UK",51.4933675,0.0098214,movie,Patriot Games
tt0105112,"Westminster, Greater London, England, UK",51.4974948,-0.1356583,movie,Patriot Games
tt0105112,"105 Freeway, Los Angeles, California, USA",33.9285065,-118.2790738,movie,Patriot Games
tt0082010,"Crickadarn, Powys, Wales, UK",52.07097899999999,-3.328955,movie,An American Werewolf in London
tt0082010,"Hay Bluff, Powys, Wales, UK",52.01666669999999,-3.1,movie,An American Werewolf in London
tt0082010,"64 Coleherne Road, Earl's Court, London, England, UK",51.4879004,-0.1904898,movie,An American Werewolf in London
tt0082010,"The Black Swan, Martyr's Green, Cobham, Surrey, England, UK",51.304463,-0.439187,movie,An American Werewolf in London
tt0082010,"Lupus Street, Pimlico, London, England, UK",51.4879258,-0.1400826,movie,An American Werewolf in London
tt0082010,"Brecon Beacons, Powys, Wales, UK",51.8814731,-3.443504,movie,An American Werewolf in London
tt0082010,"Chiswick Maternity Hospital, Netheravon Road South, London, England, UK",51.4885575,-0.2473527,movie,An American Werewolf in London
tt0082010,"Tottenham Court Road Underground Station, Tottenham Court Road, Bloomsbury, London, England, UK",51.5162628,-0.1306618,movie,An American Werewolf in London
tt0082010,"Burnham Beeches, Buckinghamshire, England, UK",51.55691789999999,-0.6318256,movie,An American Werewolf in London
tt0082010,"Piccadilly, London, England, UK",51.5067126,-0.1428323,movie,An American Werewolf in London
tt0082010,"Redcliffe Square, Kensington, London, England, UK",51.4878026,-0.1884393,movie,An American Werewolf in London
tt0082010,"Trafalgar Square, St James's, London, England, UK",51.5076923,-0.1287592,movie,An American Werewolf in London
tt0082010,"Winchester Walk, Clink Street, Southwark, London, England, UK",51.5071023,-0.0921071,movie,An American Werewolf in London
tt0082010,"Windsor Great Park, Windsor, Berkshire, England, UK",51.4241164,-0.6176136,movie,An American Werewolf in London
tt0082010,"East Heath Road, Hampstead Heath, Hampstead, London, England, UK",51.5608294,-0.1629416,movie,An American Werewolf in London
tt0082010,"London Zoo, Regent's Park, London, England, UK",51.5352875,-0.1534303,movie,An American Werewolf in London
tt0082010,"Princess Beatrice House, 192 Finborough Rd, Kensington, London, England, UK",51.4881719,-0.1922784,movie,An American Werewolf in London
tt0082010,"Twickenham Film Studios, St Margarets, Twickenham, Middlesex, England, UK",51.4557695,-0.3186036,movie,An American Werewolf in London
tt0082010,"Well Walk, East Heath Road, Hampstead Heath, Hampstead, London, England, UK",51.5608294,-0.1629416,movie,An American Werewolf in London
tt0082010,"Near Tower Bridge, London, England, UK",51.5054564,-0.07535649999999999,movie,An American Werewolf in London
tt0082010,"Piccadilly Circus, Piccadilly, London, England, UK",51.5098597,-0.1342809,movie,An American Werewolf in London
tt0082010,"Stony Stratford, Milton Keynes, UK",52.05701999999999,-0.849039,movie,An American Werewolf in London
tt0082010,"Clink Street, Southwark, London, England, UK",51.5071023,-0.0921071,movie,An American Werewolf in London
tt0082010,"Southwark, London, England, UK",51.502781,-0.087738,movie,An American Werewolf in London
tt0082010,"Wales, UK",52.1306607,-3.7837117,movie,An American Werewolf in London
tt0082010,"London, England, UK",51.5072178,-0.1275862,movie,An American Werewolf in London
tt0082010,"England, UK",52.3555177,-1.1743197,movie,An American Werewolf in London
tt0082010,UK,55.378051,-3.435973,movie,An American Werewolf in London
tt0082010,"Tottenham Court Road Tube Station, UK",51.5162811,-0.1300406,movie,An American Werewolf in London
tt0082010,"Clink Street London, England, UK",51.5071023,-0.0921071,movie,An American Werewolf in London
tt0085995,"Six Flags Magic Mountain - 26101 Magic Mountain Parkway, Valencia, California, USA",34.4249209,-118.5958464,movie,Vacation
tt0085995,"Saddleback Inn, 12500 Firestone Blvd, Norwalk, California, USA",33.9036257,-118.0658727,movie,Vacation
tt0085995,"Schnebly Hill Road Overlook, Sedona, Arizona, USA",34.8656839,-111.7520637,movie,Vacation
tt0085995,"Durango, Colorado, USA",37.27528,-107.8800667,movie,Vacation
tt0085995,"Grand Canyon National Park, Arizona, USA",36.2678855,-112.3535253,movie,Vacation
tt0085995,"2310 North Vermont Avenue, Los Feliz, Los Angeles, California, USA",34.1126651,-118.2913765,movie,Vacation
tt0085995,"Chicago, Illinois, USA",41.8781136,-87.6297982,movie,Vacation
tt0085995,"Death Valley National Park, California, USA",36.5322649,-116.9325408,movie,Vacation
tt0085995,"Santa Anita Park & Racetrack - 285 West Huntington Drive, Arcadia, California, USA",34.139204,-118.0452891,movie,Vacation
tt0085995,"Riverbend Resort - 33846 US-160 Hwy, South Fork, Colorado, USA",37.63086,-106.67609,movie,Vacation
tt0085995,"Alamosa, Colorado, USA",37.4694491,-105.8700214,movie,Vacation
tt0085995,"Monument Valley, Utah, USA",37.004509,-110.173244,movie,Vacation
tt0085995,"900 South Brand Boulevard - Glendale, California, USA",34.1354888,-118.2542155,movie,Vacation
tt0085995,"1510 Colorado St, Glendale, California, USA",34.1425304,-118.2309616,movie,Vacation
tt0085995,"US-50 Hwy, Pueblo, Colorado, USA",38.2861379,-104.5927559,movie,Vacation
tt0085995,"Shaw Creek Rest Area - 24863 US-160 Hwy, South Fork, Colorado, USA",37.67948579999999,-106.5449854,movie,Vacation
tt0085995,"Pueblo, Colorado, USA",38.2705996,-104.6101033,movie,Vacation
tt0085995,"Santa Clarita, California, USA",34.3916641,-118.542586,movie,Vacation
tt0085995,"Monument Valley, Arizona, USA",36.9913715,-110.1938672,movie,Vacation
tt0085995,"Little America Hotel Gas Station - 2515 E Butler Ave, Flagstaff, Arizona, USA",35.191496,-111.6190191,movie,Vacation
tt0085995,"58909 Apple Road - Boone, Colorado, USA",38.213199,-104.2417062,movie,Vacation
tt0085995,"Coronado Motel - 2130 Lake Ave, Pueblo, Colorado, USA",38.2303066,-104.6244257,movie,Vacation
tt0085995,"El Tovar Hotel, Grand Canyon National Park, Arizona, USA",36.0573981,-112.1375724,movie,Vacation
tt0085995,"Beaver St, Flagstaff, Arizona, USA",35.1920285,-111.6528368,movie,Vacation
tt0085995,"Dijon Street, Warner Brothers Burbank Studios - 4000 Warner Boulevard, Burbank, California, USA",34.1487314,-118.3386863,movie,Vacation
tt0085995,"The Wolf Creek overlook, Pagosa Springs, Colorado, USA",37.3173597,-107.131301,movie,Vacation
tt0085995,"1605 Main St, Alamosa, Colorado, USA",37.4701247,-105.8815325,movie,Vacation
tt0085995,"County Rd 310, Durango, Colorado, USA",37.0577386,-107.8546523,movie,Vacation
tt0085995,"County Rd 124, Hesperus, Colorado, USA",37.3771642,-108.0763368,movie,Vacation
tt0085995,"3025 West Wilson Drive - Flagstaff, Arizona, USA",35.2333251,-111.6704276,movie,Vacation
tt0085995,"Los Angeles, California, USA",34.0549076,-118.242643,movie,Vacation
tt0085995,"Stage 20, Warner Brothers Burbank Studios - 4000 Warner Boulevard, Burbank, California, USA",34.1487314,-118.3386863,movie,Vacation
tt0085995,"Cahuenga Blvd. and Riverside Dr., Toluca Lake, CA 91602",34.1522043,-118.3615007,movie,Vacation
tt0085995,"Brownstone Street, Warner Brothers Burbank Studios - 4000 Warner Boulevard, Burbank, California, USA",34.1487314,-118.3386863,movie,Vacation
tt0085995,"New York Street, Warner Brothers Burbank Studios - 4000 Warner Boulevard, Burbank, California, USA",34.15466440000001,-118.3341049,movie,Vacation
tt0085995,"Hennesy Street, Warner Brothers Burbank Studios - 4000 Warner Boulevard, Burbank, California, USA",34.1487314,-118.3386863,movie,Vacation
tt0085995,"Park Boulevard, Columbia/Warner Bros. Ranch - 411 North Hollywood Way, Burbank, California, USA",34.1578705,-118.3441702,movie,Vacation
tt0085995,"Blondie Street, Columbia/Warner Bros. Ranch - 411 North Hollywood Way, Burbank, California, USA",34.1578705,-118.3441702,movie,Vacation
tt0085995,"US-160 Hwy, Kayenta, Arizona, USA",36.705927,-110.2593267,movie,Vacation
tt0085995,"Ocean Ave & Santa Monica Blvd, Santa Monica, California, USA",34.0141014,-118.4980724,movie,Vacation
tt0085995,"Laramie Street, Warner Brothers Burbank Studios - 4000 Warner Boulevard, Burbank, California, USA",34.1487314,-118.3386863,movie,Vacation
tt0085995,"St. Louis, Missouri, USA",38.6270025,-90.19940419999999,movie,Vacation
tt0085995,"Colorado, USA",39.5500507,-105.7820674,movie,Vacation
tt0085995,"US-41 Expy, Lake Shore Drive, Chicago, Illinois, USA",41.8528347,-87.613611,movie,Vacation
tt0085995,"I-55, Stevenson Expressway, Chicago, Illinois, USA",41.7584679,-87.91197559999999,movie,Vacation
tt0085995,"Arizona, USA",34.0489281,-111.0937311,movie,Vacation
tt0085995,"California, USA",36.778261,-119.4179324,movie,Vacation
tt0085995,USA,37.09024,-95.712891,movie,Vacation
tt0085995,"Flagstaff, Arizona, USA",35.1982836,-111.651302,movie,Vacation
tt0085995,"Ellis Family Stores Car Dealership. Glendale, California, USA",34.1192985,-118.2540476,movie,Vacation
tt0467200,"Haddon Hall, Bakewell, Derbyshire, England, UK",53.19410060000001,-1.6505945,movie,The Other Boleyn Girl
tt0467200,"Ely Cathedral, Chapter House, The College, Ely, Cambridgeshire, England, UK",52.3989933,0.2655202,movie,The Other Boleyn Girl
tt0467200,"Berkeley Castle, Berkeley, Gloucestershire, England, UK",51.6885901,-2.4567624,movie,The Other Boleyn Girl
tt0467200,"Knole, Sevenoaks, Kent, England, UK",51.2662551,0.20557,movie,The Other Boleyn Girl
tt0467200,"Manor House, Great Chalfield, Wiltshire, England, UK",51.3676417,-2.2023335,movie,The Other Boleyn Girl
tt0467200,"Windsor, Berkshire, England, UK",51.48034209999999,-0.6157136999999999,movie,The Other Boleyn Girl
tt0467200,"Bath, Somerset, England, UK",51.3781018,-2.3596827,movie,The Other Boleyn Girl
tt0467200,"Bude, Cornwall, England, UK",50.826636,-4.543678,movie,The Other Boleyn Girl
tt0467200,"Kent, England, UK",51.2787075,0.5217254000000001,movie,The Other Boleyn Girl
tt0467200,"Lacock Abbey, Lacock, Wiltshire, England, UK",51.4145727,-2.1200601,movie,The Other Boleyn Girl
tt0467200,"Penshurst Place, Penshurst, Kent, England, UK",51.1746265,0.1836777,movie,The Other Boleyn Girl
tt0467200,"Dover Castle, Dover, Kent, England, UK",51.128771,1.323391,movie,The Other Boleyn Girl
tt0467200,"Bolebroke Castle, Hartfield, East Sussex, England, UK",51.1201647,0.1061109,movie,The Other Boleyn Girl
tt0467200,"Elstree Studios, Borehamwood, Hertfordshire, England, UK",51.65813989999999,-0.2692358,movie,The Other Boleyn Girl
tt0467200,"Pinewood Studios, Iver Heath, Buckinghamshire, England, UK",51.5488872,-0.5319505999999999,movie,The Other Boleyn Girl
tt0467200,"Bakewell, Derbyshire, England, UK",53.215207,-1.676171,movie,The Other Boleyn Girl
tt0467200,"Ely, Cambridgeshire, England, UK",52.399539,0.262363,movie,The Other Boleyn Girl
tt0467200,"Berkshire, England, UK",51.4669939,-1.1853677,movie,The Other Boleyn Girl
tt0467200,"Cambridgeshire, England, UK",52.2052973,0.1218195,movie,The Other Boleyn Girl
tt0467200,"Hertfordshire, England, UK",51.80978229999999,-0.2376744,movie,The Other Boleyn Girl
tt0467200,"Berkeley, Gloucestershire, England, UK",51.690667,-2.456816,movie,The Other Boleyn Girl
tt0467200,"Somerset, England, UK",51.105097,-2.9262307,movie,The Other Boleyn Girl
tt0467200,"Gloucestershire, England, UK",51.8993855,-2.0782533,movie,The Other Boleyn Girl
tt0467200,"Derbyshire, England, UK",53.1046782,-1.5623885,movie,The Other Boleyn Girl
tt0467200,"Borehamwood, Hertfordshire, England, UK",51.657728,-0.272308,movie,The Other Boleyn Girl
tt0467200,"Wiltshire, England, UK",51.3491996,-1.9927105,movie,The Other Boleyn Girl
tt0467200,UK,55.378051,-3.435973,movie,The Other Boleyn Girl
tt0467200,"England, UK",52.3555177,-1.1743197,movie,The Other Boleyn Girl
tt0467200,"Sevenoaks, Kent, England, UK",51.27241000000001,0.190898,movie,The Other Boleyn Girl
tt0467200,"Lacock, Wiltshire, England, UK",51.4157861,-2.1229284,movie,The Other Boleyn Girl
tt0467200,"Great Chalfield, Wiltshire, England, UK",51.3659224,-2.198189,movie,The Other Boleyn Girl
tt0467200,"Hartfield, East Sussex, England, UK",51.102295,0.111502,movie,The Other Boleyn Girl
tt0467200,"East Sussex, England, UK",50.9085955,0.2494166,movie,The Other Boleyn Girl
tt1327773,"Houma, Louisiana, USA",29.5957696,-90.71953479999999,movie,The Butler
tt1327773,"Lafourche Parish, Louisiana, USA",29.6952295,-90.52578229999999,movie,The Butler
tt1327773,"Second Line Stages, New Orleans, Louisiana, USA",29.9315181,-90.0700547,movie,The Butler
tt1327773,"New Orleans, Louisiana, USA",29.95106579999999,-90.0715323,movie,The Butler
tt1327773,"Louisiana, USA",30.5190775,-91.5208624,movie,The Butler
tt1327773,"Raceland, Louisiana, USA",29.7274331,-90.5989759,movie,The Butler
tt1327773,"Laurel Valley, Thibodaux, Louisiana, USA",29.8181659,-90.7652749,movie,The Butler
tt1327773,"Washington D.C, USA",38.9071923,-77.0368707,movie,The Butler
tt10857164,"Bangkok, Thailand",13.7563309,100.5017651,tvMiniSeries,Ms. Marvel
tt10857164,Thailand,15.870032,100.992541,tvMiniSeries,Ms. Marvel
tt10857164,"Los Angeles, California, USA",34.0549076,-118.242643,tvMiniSeries,Ms. Marvel
tt10857164,"Atlanta, Georgia, USA",33.748752,-84.38768449999999,tvMiniSeries,Ms. Marvel
tt8721424,"New York City, New York, USA",40.7127753,-74.0059728,movie,"tick, tick... BOOM!"
tt8721424,"Tony Dapolito Recreation Center, New York, USA",40.7296158,-74.00543019999999,movie,"tick, tick... BOOM!"
tt8721424,"Gold Coast Studios - 700 Hicksville Road, Bethpage, Long Island, New York, USA",40.7434202,-73.4951864,movie,"tick, tick... BOOM!"
tt0070379,"Old St Patrick's Cathedral - 263 Mulberry Street, Little Italy, Manhattan, New York City, New York, USA",40.72364719999999,-73.9954348,movie,Mean Streets
tt0070379,"Mulberry Street, Little Italy, Manhattan, New York City, New York, USA",40.7194008,-73.9972835,movie,Mean Streets
tt0070379,"Bowery & Bleecker St, New York City, New York, USA",40.7252617,-73.9922789,movie,Mean Streets
tt0070379,"Belmont, Bronx, New York City, New York, USA",40.8534507,-73.88936819999999,movie,Mean Streets
