[{"tconst":"tt0111161","location":"Mansfield Reformatory - 100 Reformatory Road, Mansfield, Ohio, USA","latitude":40.784215,"longitude":-82.502481,"titleType":"movie","primaryTitle":"The Shawshank Redemption"},{"tconst":"tt0111161","location":"Butler, Ohio, USA","latitude":40.5883933,"longitude":-82.4248862,"titleType":"movie","primaryTitle":"The Shawshank Redemption"},{"tconst":"tt0111161","location":"Sandy Point, St. Croix, U.S. Virgin Islands","latitude":17.69192,"longitude":-64.8804241,"titleType":"movie","primaryTitle":"The Shawshank Redemption"},{"tconst":"tt0111161","location":"Malabar Farm State Park - 4050 Bromfield Road, Lucas, Ohio, USA","latitude":40.6525867,"longitude":-82.3984872,"titleType":"movie","primaryTitle":"The Shawshank Redemption"},{"tconst":"tt0111161","location":"127A Smithfield Road, Frederiksted, Virgin Islands","latitude":17.7124746,"longitude":-64.8815352,"titleType":"movie","primaryTitle":"The Shawshank Redemption"},{"tconst":"tt0111161","location":"Wyandot County Courthouse, Upper Sandusky, Ohio, USA","latitude":40.8271292,"longitude":-83.2807813,"titleType":"movie","primaryTitle":"The Shawshank Redemption"},{"tconst":"tt0111161","location":"Ashland, Ohio, USA","latitude":40.8686675,"longitude":-82.3182178,"titleType":"movie","primaryTitle":"The Shawshank Redemption"},{"tconst":"tt0111161","location":"193 North Main Street, Mansfield, Ohio, USA","latitude":40.7636861,"longitude":-82.5155272,"titleType":"movie","primaryTitle":"The Shawshank Redemption"},{"tconst":"tt0111161","location":"Snyder Road and Hagerman Road, Bellville, Ohio, USA","latitude":40.6164468,"longitude":-82.4290207,"titleType":"movie","primaryTitle":"The Shawshank Redemption"},{"tconst":"tt0111161","location":"Mansfield, Ohio, USA","latitude":40.75839,"longitude":-82.5154471,"titleType":"movie","primaryTitle":"The Shawshank Redemption"},{"tconst":"tt0111161","location":"Upper Sandusky, Ohio, USA","latitude":40.8272785,"longitude":-83.2813089,"titleType":"movie","primaryTitle":"The Shawshank Redemption"},{"tconst":"tt0111161","location":"301 E 5th Street, Mansfield, Ohio, USA","latitude":40.7630465,"longitude":-82.5056945,"titleType":"movie","primaryTitle":"The Shawshank Redemption"},{"tconst":"tt0111161","location":"Rod Bay, St Croix, USVI","latitude":17.7335872,"longitude":-64.6147626,"titleType":"movie","primaryTitle":"The Shawshank Redemption"},{"tconst":"tt0111161","location":"Yuma, Arizona, USA","latitude":32.6926512,"longitude":-114.6276916,"titleType":"movie","primaryTitle":"The Shawshank Redemption"},{"tconst":"tt0111161","location":"Bellville, Ohio, USA","latitude":40.6200588,"longitude":-82.5107222,"titleType":"movie","primaryTitle":"The Shawshank Redemption"},{"tconst":"tt0111161","location":"Sandusky, Ohio, USA","latitude":41.4561754,"longitude":-82.7116821,"titleType":"movie","primaryTitle":"The Shawshank Redemption"},{"tconst":"tt0111161","location":"Mansfield, Shelby, Ohio, USA","latitude":40.8814452,"longitude":-82.6618424,"titleType":"movie","primaryTitle":"The Shawshank Redemption"},{"tconst":"tt0111161","location":"Ohio, USA","latitude":40.4172871,"longitude":-82.907123,"titleType":"movie","primaryTitle":"The Shawshank Redemption"},{"tconst":"tt0111161","location":"Arizona, USA","latitude":34.0489281,"longitude":-111.0937311,"titleType":"movie","primaryTitle":"The Shawshank Redemption"},{"tconst":"tt0111161","location":"USA","latitude":37.09024,"longitude":-95.712891,"titleType":"movie","primaryTitle":"The Shawshank Redemption"},{"tconst":"tt0468569","location":"Chicago, Illinois, USA","latitude":41.8781136,"longitude":-87.6297982,"titleType":"movie","primaryTitle":"The Dark Knight"},{"tconst":"tt0468569","location":"Battersea Power Station, Battersea, London, England, UK","latitude":51.4820203,"longitude":-0.1444907,"titleType":"movie","primaryTitle":"The Dark Knight"},{"tconst":"tt0468569","location":"Times Square, Causeway Bay, Hong Kong","latitude":22.278151,"longitude":114.1821136,"titleType":"movie","primaryTitle":"The Dark Knight"},{"tconst":"tt0468569","location":"Senate House, University College London, Malet Street, Bloomsbury, London, England, UK","latitude":51.52425,"longitude":-0.1318506,"titleType":"movie","primaryTitle":"The Dark Knight"},{"tconst":"tt0468569","location":"Piccadilly Circus, Piccadilly, London, England, UK","latitude":51.5098597,"longitude":-0.1342809,"titleType":"movie","primaryTitle":"The Dark Knight"},{"tconst":"tt0468569","location":"Queen's Road Central, Central, Hong Kong, China","latitude":22.282826,"longitude":114.155706,"titleType":"movie","primaryTitle":"The Dark Knight"},{"tconst":"tt0468569","location":"Millennium Station, Chicago, Illinois, USA","latitude":41.8843882,"longitude":-87.6246974,"titleType":"movie","primaryTitle":"The Dark Knight"},{"tconst":"tt0468569","location":"Twin Anchors Restaurant & Tavern - 1655 N. Sedgwick Street, Lincoln Park, Chicago, Illinois, USA","latitude":41.9127239,"longitude":-87.6384224,"titleType":"movie","primaryTitle":"The Dark Knight"},{"tconst":"tt0468569","location":"Hong Kong, China","latitude":22.3193039,"longitude":114.1693611,"titleType":"movie","primaryTitle":"The Dark Knight"},{"tconst":"tt0468569","location":"Pinewood Studios, Iver Heath, Buckinghamshire, England, UK","latitude":51.5488872,"longitude":-0.5319506,"titleType":"movie","primaryTitle":"The Dark Knight"},{"tconst":"tt0468569","location":"Victoria Harbour, Hong Kong, China","latitude":22.3074457937,"longitude":114.1677101506,"titleType":"movie","primaryTitle":"The Dark Knight"},{"tconst":"tt0468569","location":"Brach's Candy Factory - 401 N. Cicero Street, Chicago, Illinois, USA","latitude":41.8880214,"longitude":-87.7453924,"titleType":"movie","primaryTitle":"The Dark Knight"},{"tconst":"tt0468569","location":"Bedford, Bedfordshire, England, UK","latitude":52.1386394,"longitude":-0.4667782,"titleType":"movie","primaryTitle":"The Dark Knight"},{"tconst":"tt0468569","location":"Lower Wacker Drive, Downtown, Chicago, Illinois, USA","latitude":41.881402,"longitude":-87.63682,"titleType":"movie","primaryTitle":"The Dark Knight"},{"tconst":"tt0468569","location":"Chertsey, Surrey, England, UK","latitude":51.386491,"longitude":-0.509456,"titleType":"movie","primaryTitle":"The Dark Knight"},{"tconst":"tt0468569","location":"George Farmiloe Building - 28-36 St John Street, Clerkenwell, London, England, UK","latitude":51.5208085,"longitude":-0.1014043,"titleType":"movie","primaryTitle":"The Dark Knight"},{"tconst":"tt0468569","location":"South LaSalle St., Chicago, Illinois, USA","latitude":41.8770561,"longitude":-87.6317616,"titleType":"movie","primaryTitle":"The Dark Knight"},{"tconst":"tt0468569","location":"Old Post Office, Chicago, Illinois, USA","latitude":41.8766228,"longitude":-87.6383941,"titleType":"movie","primaryTitle":"The Dark Knight"},{"tconst":"tt0468569","location":"University of Westminster, London, England, UK","latitude":51.5072178,"longitude":-0.1275862,"titleType":"movie","primaryTitle":"The Dark Knight"},{"tconst":"tt0468569","location":"Atwood Cafe - 1 W Washington St, Chicago, Illinois, USA","latitude":41.8830904,"longitude":-87.6281082,"titleType":"movie","primaryTitle":"The Dark Knight"},{"tconst":"tt0468569","location":"McCormick Place - 2301 S. Lake Shore Drive, Near South Side, Chicago, Illinois, USA","latitude":41.8527221,"longitude":-87.6158294,"titleType":"movie","primaryTitle":"The Dark Knight"},{"tconst":"tt0468569","location":"IBM Building - 330 N Wabash, Chicago, Illinois, USA","latitude":41.8886339,"longitude":-87.6275074,"titleType":"movie","primaryTitle":"The Dark Knight"},{"tconst":"tt0468569","location":"Cardington Airship Hangars, Bedfordshire, England, UK","latitude":52.117296,"longitude":-0.412731,"titleType":"movie","primaryTitle":"The Dark Knight"},{"tconst":"tt0468569","location":"Richard J. Daley Center - 55 W. Randolph Street, The Loop, Downtown, Chicago, Illinois, USA","latitude":41.884328,"longitude":-87.6301134,"titleType":"movie","primaryTitle":"The Dark Knight"},{"tconst":"tt0468569","location":"Twickenham, Middlesex, England, UK","latitude":51.4453043,"longitude":-0.3375429,"titleType":"movie","primaryTitle":"The Dark Knight"},{"tconst":"tt0468569","location":"Trump International Hotel & Tower - 401 N Wabash, Chicago, Illinois, USA","latitude":41.888868,"longitude":-87.626394,"titleType":"movie","primaryTitle":"The Dark Knight"},{"tconst":"tt0468569","location":"230 S LaSelle St, Chicago, Illinois, USA","latitude":41.8785478,"longitude":-87.6328668,"titleType":"movie","primaryTitle":"The Dark Knight"},{"tconst":"tt0468569","location":"Criterion Theatre, Jermyn Street, St James's, London, England, UK","latitude":51.5097268,"longitude":-0.1342695,"titleType":"movie","primaryTitle":"The Dark Knight"},{"tconst":"tt0468569","location":"Warner Bros. Studios Leavesden, Warner Drive, Leavesden, Watford, Hertfordshire, England, UK","latitude":51.6929761,"longitude":-0.4171846,"titleType":"movie","primaryTitle":"The Dark Knight"},{"tconst":"tt0468569","location":"London, England, UK","latitude":51.5072178,"longitude":-0.1275862,"titleType":"movie","primaryTitle":"The Dark Knight"},{"tconst":"tt0468569","location":"The Center, Central, Hong Kong, China","latitude":22.2846202,"longitude":114.1547347,"titleType":"movie","primaryTitle":"The Dark Knight"},{"tconst":"tt0468569","location":"The Peninsula Hong Kong, Salisbury Road, Tsim Sha Tsui, Kowloon, Hong Kong, China","latitude":22.2951024,"longitude":114.1718537,"titleType":"movie","primaryTitle":"The Dark Knight"},{"tconst":"tt0468569","location":"N Franklin Street, Chicago, Illinois, USA","latitude":41.890869,"longitude":-87.6355739,"titleType":"movie","primaryTitle":"The Dark Knight"},{"tconst":"tt0468569","location":"2 International Finance Centre, Central, Hong Kong, China","latitude":22.285,"longitude":114.159167,"titleType":"movie","primaryTitle":"The Dark Knight"},{"tconst":"tt0468569","location":"Hotel 71 - 71 E. Wacker Drive, Downtown, Chicago, Illinois, USA","latitude":41.8873941,"longitude":-87.625694,"titleType":"movie","primaryTitle":"The Dark Knight"},{"tconst":"tt0468569","location":"Los Angeles, California, USA","latitude":34.0549076,"longitude":-118.242643,"titleType":"movie","primaryTitle":"The Dark Knight"},{"tconst":"tt0468569","location":"Old Town, Near North Side, Chicago, Illinois, USA","latitude":41.9110773,"longitude":-87.6410116,"titleType":"movie","primaryTitle":"The Dark Knight"},{"tconst":"tt0468569","location":"St John Street, Clerkenwell, London, England, UK","latitude":51.5258369,"longitude":-0.1040182,"titleType":"movie","primaryTitle":"The Dark Knight"},{"tconst":"tt0468569","location":"Longcross, Surrey, England, UK","latitude":51.378499,"longitude":-0.5795636,"titleType":"movie","primaryTitle":"The Dark Knight"},{"tconst":"tt0468569","location":"Navy Pier - 600 E. Grand Avenue, Near North Side, Chicago, Illinois, USA","latitude":41.8918633,"longitude":-87.6050944,"titleType":"movie","primaryTitle":"The Dark Knight"},{"tconst":"tt1375666","location":"Fortress Mountain, Kananaskis Country, Alberta, Canada","latitude":51.0616996,"longitude":-115.1596908,"titleType":"movie","primaryTitle":"Inception"},{"tconst":"tt1375666","location":"Tangier, Morocco","latitude":35.7594651,"longitude":-5.8339543,"titleType":"movie","primaryTitle":"Inception"},{"tconst":"tt1375666","location":"Shizuoka, Japan","latitude":34.9755668,"longitude":138.3826773,"titleType":"movie","primaryTitle":"Inception"},{"tconst":"tt1375666","location":"Tokyo, Japan","latitude":35.6764225,"longitude":139.650027,"titleType":"movie","primaryTitle":"Inception"},{"tconst":"tt1375666","location":"Alberta, Canada","latitude":53.9332706,"longitude":-116.5765035,"titleType":"movie","primaryTitle":"Inception"},{"tconst":"tt1375666","location":"Da Stuzzi Delicatessen, 6 Rue C\u00e9sar Franck, Paris 15, France","latitude":48.8474711,"longitude":2.3098713,"titleType":"movie","primaryTitle":"Inception"},{"tconst":"tt1375666","location":"Kananaskis Village, Kananaskis Country, Alberta, Canada","latitude":50.917246,"longitude":-115.1472144,"titleType":"movie","primaryTitle":"Inception"},{"tconst":"tt1375666","location":"Pont de Bir-Hakeim, Paris, France","latitude":48.8555812,"longitude":2.287589,"titleType":"movie","primaryTitle":"Inception"},{"tconst":"tt1375666","location":"Bedford, Bedfordshire, England, UK","latitude":52.1386394,"longitude":-0.4667782,"titleType":"movie","primaryTitle":"Inception"},{"tconst":"tt1375666","location":"Spring Street, Downtown, Los Angeles, California, USA","latitude":34.0479709,"longitude":-118.248584,"titleType":"movie","primaryTitle":"Inception"},{"tconst":"tt1375666","location":"Cardington Airship Hangars, Bedfordshire, England, UK","latitude":52.117296,"longitude":-0.412731,"titleType":"movie","primaryTitle":"Inception"},{"tconst":"tt1375666","location":"University College London, Bloomsbury, London, England, UK","latitude":51.5247063,"longitude":-0.1335692,"titleType":"movie","primaryTitle":"Inception"},{"tconst":"tt1375666","location":"Commodore Schuyler F. Heim Bridge, Port of Los Angeles, Los Angeles, California, USA","latitude":33.7658147,"longitude":-118.2393831,"titleType":"movie","primaryTitle":"Inception"},{"tconst":"tt1375666","location":"Morocco","latitude":31.791702,"longitude":-7.09262,"titleType":"movie","primaryTitle":"Inception"},{"tconst":"tt1375666","location":"Farnborough Airfield, Hampshire, England, UK","latitude":51.283039,"longitude":-0.777307,"titleType":"movie","primaryTitle":"Inception"},{"tconst":"tt1375666","location":"Rancho Palos Verdes, California, USA","latitude":33.7444613,"longitude":-118.3870173,"titleType":"movie","primaryTitle":"Inception"},{"tconst":"tt1375666","location":"Rue Bouchut, Paris 15, Paris, France","latitude":48.8468386,"longitude":2.3100575,"titleType":"movie","primaryTitle":"Inception"},{"tconst":"tt1375666","location":"Stage 16, Warner Brothers Burbank Studios - 4000 Warner Boulevard, Burbank, California, USA","latitude":34.1475474,"longitude":-118.3390296,"titleType":"movie","primaryTitle":"Inception"},{"tconst":"tt1375666","location":"John Ferraro Building, 111 North Hope Street, Los Angeles, California, USA","latitude":34.058603,"longitude":-118.248472,"titleType":"movie","primaryTitle":"Inception"},{"tconst":"tt1375666","location":"Leo Carrillo State Beach - 35000 W. Pacific Coast Highway, Malibu, California, USA","latitude":33.833,"longitude":-118.3850022,"titleType":"movie","primaryTitle":"Inception"},{"tconst":"tt1375666","location":"Bedfordshire, England, UK","latitude":52.0627394,"longitude":-0.5292091,"titleType":"movie","primaryTitle":"Inception"},{"tconst":"tt1375666","location":"Pasadena, California, USA","latitude":34.1477849,"longitude":-118.1445155,"titleType":"movie","primaryTitle":"Inception"},{"tconst":"tt1375666","location":"1240 S Hope St, Los Angeles, California, USA","latitude":34.0398947,"longitude":-118.2648592,"titleType":"movie","primaryTitle":"Inception"},{"tconst":"tt1375666","location":"Falls Lake, Backlot, Universal Studios - 100 Universal City Plaza, Universal City, California, USA","latitude":34.1381168,"longitude":-118.3533783,"titleType":"movie","primaryTitle":"Inception"},{"tconst":"tt1375666","location":"453 S Spring St, Los Angeles, California, USA","latitude":34.047787,"longitude":-118.2495256,"titleType":"movie","primaryTitle":"Inception"},{"tconst":"tt1375666","location":"Malibu, California, USA","latitude":34.0380585,"longitude":-118.6923438,"titleType":"movie","primaryTitle":"Inception"},{"tconst":"tt1375666","location":"Los Angeles Department of Water and Power -111 N Hope St Los Angeles, California, USA","latitude":34.058043,"longitude":-118.24954,"titleType":"movie","primaryTitle":"Inception"},{"tconst":"tt1375666","location":"Downtown, Los Angeles, California, USA","latitude":34.055691,"longitude":-118.2487702,"titleType":"movie","primaryTitle":"Inception"},{"tconst":"tt1375666","location":"Los Angeles, California, USA","latitude":34.0549076,"longitude":-118.242643,"titleType":"movie","primaryTitle":"Inception"},{"tconst":"tt1375666","location":"Paris 15, Paris, France","latitude":48.8421297,"longitude":2.2927047,"titleType":"movie","primaryTitle":"Inception"},{"tconst":"tt1375666","location":"California, USA","latitude":36.778261,"longitude":-119.4179324,"titleType":"movie","primaryTitle":"Inception"},{"tconst":"tt1375666","location":"Paris, France","latitude":48.856614,"longitude":2.3522219,"titleType":"movie","primaryTitle":"Inception"},{"tconst":"tt1375666","location":"Ark Mori Building - 1-12-32, Akasaka, Minato, Tokyo, Japan","latitude":35.6671134,"longitude":139.740135,"titleType":"movie","primaryTitle":"Inception"},{"tconst":"tt1375666","location":"France","latitude":46.227638,"longitude":2.213749,"titleType":"movie","primaryTitle":"Inception"},{"tconst":"tt0137523","location":"240 North Neptune Avenue, Los Angeles, California, USA","latitude":33.7727496,"longitude":-118.2682616,"titleType":"movie","primaryTitle":"Fight Club"},{"tconst":"tt0137523","location":"217 Figueroa Street, Los Angeles, California, USA","latitude":34.0564146,"longitude":-118.2537428,"titleType":"movie","primaryTitle":"Fight Club"},{"tconst":"tt0137523","location":"Promenade Towers Apartments - 123 South Figueroa Street, Los Angeles, California, USA","latitude":34.0573352,"longitude":-118.2527053,"titleType":"movie","primaryTitle":"Fight Club"},{"tconst":"tt0137523","location":"325 West 8th Street - Los Angeles, California, USA","latitude":34.0444951,"longitude":-118.2554688,"titleType":"movie","primaryTitle":"Fight Club"},{"tconst":"tt0137523","location":"St. Brendan's Catholic Church - 310 S. Van Ness Avenue, Hancock Park, Los Angeles, California, USA","latitude":34.0685218,"longitude":-118.3147874,"titleType":"movie","primaryTitle":"Fight Club"},{"tconst":"tt0137523","location":"Stage 15, 20th Century Fox Studios - 10201 Pico Blvd., Century City, Los Angeles, California, USA","latitude":34.0523198,"longitude":-118.4126303,"titleType":"movie","primaryTitle":"Fight Club"},{"tconst":"tt0137523","location":"Los Angeles Theatre - 615 S. Broadway, Downtown, Los Angeles, California, USA","latitude":34.046444,"longitude":-118.2526466,"titleType":"movie","primaryTitle":"Fight Club"},{"tconst":"tt0137523","location":"421 W. Eighth Street, Los Angeles, California, USA","latitude":34.0450554,"longitude":-118.2563626,"titleType":"movie","primaryTitle":"Fight Club"},{"tconst":"tt0137523","location":"1331 B Street, Wilmington, Los Angeles, California, USA","latitude":33.7706211,"longitude":-118.2783404,"titleType":"movie","primaryTitle":"Fight Club"},{"tconst":"tt0137523","location":"Tower Theatre - 802 S. Broadway, Downtown, Los Angeles, California, USA","latitude":34.0435058,"longitude":-118.2545171,"titleType":"movie","primaryTitle":"Fight Club"},{"tconst":"tt0137523","location":"Melrose Avenue at North Heliotrope Drive, Los Angeles, California, USA","latitude":34.0835988,"longitude":-118.2949758,"titleType":"movie","primaryTitle":"Fight Club"},{"tconst":"tt0137523","location":"505 North Avalon Boulevard, Los Angeles, California, USA","latitude":33.7758282,"longitude":-118.2625523,"titleType":"movie","primaryTitle":"Fight Club"},{"tconst":"tt0137523","location":"330 West 8th Street, Los Angeles, California, USA","latitude":34.0441785,"longitude":-118.2557335,"titleType":"movie","primaryTitle":"Fight Club"},{"tconst":"tt0137523","location":"150 World Way, Los Angeles, California, USA","latitude":33.9471033,"longitude":-118.4012431,"titleType":"movie","primaryTitle":"Fight Club"},{"tconst":"tt0137523","location":"Los Angeles Center Studios - 450 S. Bixel Street, Downtown, Los Angeles, California, USA","latitude":34.0552572,"longitude":-118.2610862,"titleType":"movie","primaryTitle":"Fight Club"},{"tconst":"tt0137523","location":"Olympic Theatre - 313 W. Eighth Street, Los Angeles, California, USA","latitude":34.0442764,"longitude":-118.2549921,"titleType":"movie","primaryTitle":"Fight Club"},{"tconst":"tt0137523","location":"San Pedro, Los Angeles, California, USA","latitude":33.7360696,"longitude":-118.2923791,"titleType":"movie","primaryTitle":"Fight Club"},{"tconst":"tt0137523","location":"Stage 16, 20th Century Fox Studios - 10201 Pico Blvd., Century City, Los Angeles, California, USA","latitude":34.0523198,"longitude":-118.4126303,"titleType":"movie","primaryTitle":"Fight Club"},{"tconst":"tt0137523","location":"Hancock Park, Los Angeles, California, USA","latitude":34.0761744,"longitude":-118.3385981,"titleType":"movie","primaryTitle":"Fight Club"},{"tconst":"tt0137523","location":"Century City, Los Angeles, California, USA","latitude":34.0531973,"longitude":-118.4162157,"titleType":"movie","primaryTitle":"Fight Club"},{"tconst":"tt0137523","location":"4313 Melrose Avenue, Los Angeles, California, USA","latitude":34.0839653,"longitude":-118.294467,"titleType":"movie","primaryTitle":"Fight Club"},{"tconst":"tt0137523","location":"Ukrainian Culture Center - 4315 Melrose Avenue, Los Angeles, California, USA","latitude":34.0836982,"longitude":-118.2945321,"titleType":"movie","primaryTitle":"Fight Club"},{"tconst":"tt0137523","location":"4323 Melrose Avenue, Los Angeles, California, USA","latitude":34.0837275,"longitude":-118.2948137,"titleType":"movie","primaryTitle":"Fight Club"},{"tconst":"tt0137523","location":"Wilmington, Los Angeles, California, USA","latitude":33.7911608,"longitude":-118.2633204,"titleType":"movie","primaryTitle":"Fight Club"},{"tconst":"tt0137523","location":"Downtown, Los Angeles, California, USA","latitude":34.055691,"longitude":-118.2487702,"titleType":"movie","primaryTitle":"Fight Club"},{"tconst":"tt0137523","location":"Los Angeles, California, USA","latitude":34.0549076,"longitude":-118.242643,"titleType":"movie","primaryTitle":"Fight Club"},{"tconst":"tt0137523","location":"California, USA","latitude":36.778261,"longitude":-119.4179324,"titleType":"movie","primaryTitle":"Fight Club"},{"tconst":"tt0137523","location":"USA","latitude":37.09024,"longitude":-95.712891,"titleType":"movie","primaryTitle":"Fight Club"},{"tconst":"tt0944947","location":"Split, Split-Dalmatia County, Croatia","latitude":43.5147118,"longitude":16.4435148,"titleType":"tvSeries","primaryTitle":"Game of Thrones"},{"tconst":"tt0944947","location":"Vrsno, Sibenik, Croatia","latitude":43.6289935,"longitude":16.0510869,"titleType":"tvSeries","primaryTitle":"Game of Thrones"},{"tconst":"tt0944947","location":"Ouarzazate, Morocco","latitude":30.9335436,"longitude":-6.937016,"titleType":"tvSeries","primaryTitle":"Game of Thrones"},{"tconst":"tt0944947","location":"Dubrovnik, Croatia","latitude":42.6506606,"longitude":18.0944238,"titleType":"tvSeries","primaryTitle":"Game of Thrones"},{"tconst":"tt0944947","location":"Harland and Wolff Paint Hall, Titanic-Quarter, Belfast, County Antrim, Northern Ireland, UK","latitude":54.6030856,"longitude":-5.9090574,"titleType":"tvSeries","primaryTitle":"Game of Thrones"},{"tconst":"tt0944947","location":"Castle Ward, Strangford, County Down, Northern Ireland, UK","latitude":54.3676822,"longitude":-5.5804912,"titleType":"tvSeries","primaryTitle":"Game of Thrones"},{"tconst":"tt0944947","location":"Marrakech, Morocco","latitude":31.6225224,"longitude":-7.9898258,"titleType":"tvSeries","primaryTitle":"Game of Thrones"},{"tconst":"tt0944947","location":"Magheramorne Quarry, Larne, County Antrim, Northern Ireland, UK","latitude":54.81499,"longitude":-5.77452,"titleType":"tvSeries","primaryTitle":"Game of Thrones"},{"tconst":"tt0944947","location":"Iceland","latitude":64.963051,"longitude":-19.020835,"titleType":"tvSeries","primaryTitle":"Game of Thrones"},{"tconst":"tt0944947","location":"Gerona, Catalonia, Spain","latitude":41.9794005,"longitude":2.8214264,"titleType":"tvSeries","primaryTitle":"Game of Thrones"},{"tconst":"tt0944947","location":"Atlas Corporation Studios, Ouarzazate, Morocco","latitude":30.9335436,"longitude":-6.937016,"titleType":"tvSeries","primaryTitle":"Game of Thrones"},{"tconst":"tt0944947","location":"Mdina, Malta","latitude":35.8863691,"longitude":14.4031146,"titleType":"tvSeries","primaryTitle":"Game of Thrones"},{"tconst":"tt0944947","location":"Klis Fortress, Klis, Croatia","latitude":43.5596454,"longitude":16.5226633,"titleType":"tvSeries","primaryTitle":"Game of Thrones"},{"tconst":"tt0944947","location":"Real Alc\u00e1zar, Seville, Andalucia, Spain","latitude":37.3830519,"longitude":-5.9902257,"titleType":"tvSeries","primaryTitle":"Game of Thrones"},{"tconst":"tt0944947","location":"Seville, Andalucia, Spain","latitude":37.3890924,"longitude":-5.9844589,"titleType":"tvSeries","primaryTitle":"Game of Thrones"},{"tconst":"tt0944947","location":"Valletta, Malta","latitude":35.8992375,"longitude":14.5140996,"titleType":"tvSeries","primaryTitle":"Game of Thrones"},{"tconst":"tt0944947","location":"Shane's Castle, County Antrim, Northern Ireland, UK","latitude":54.7285575,"longitude":-6.2674789,"titleType":"tvSeries","primaryTitle":"Game of Thrones"},{"tconst":"tt0944947","location":"Tollymore Forest Park, Bryansford, County Down, Northern Ireland, UK","latitude":54.2245363,"longitude":-5.9402786,"titleType":"tvSeries","primaryTitle":"Game of Thrones"},{"tconst":"tt0944947","location":"Belfast, County Antrim, Northern Ireland, UK","latitude":54.597285,"longitude":-5.93012,"titleType":"tvSeries","primaryTitle":"Game of Thrones"},{"tconst":"tt0944947","location":"Doune Castle, Doune, Stirling, Scotland, UK","latitude":56.1851989,"longitude":-4.0499458,"titleType":"tvSeries","primaryTitle":"Game of Thrones"},{"tconst":"tt0944947","location":"Dwejra, Gozo Island, Malta","latitude":36.0494787,"longitude":14.1920475,"titleType":"tvSeries","primaryTitle":"Game of Thrones"},{"tconst":"tt0944947","location":"Volcano, Skaftafell National Park, Iceland","latitude":64.070414,"longitude":-16.9751755,"titleType":"tvSeries","primaryTitle":"Game of Thrones"},{"tconst":"tt0944947","location":"El Chorrillo, Pechina, Almeria, Andalucia, Spain","latitude":36.9474868,"longitude":-2.40913,"titleType":"tvSeries","primaryTitle":"Game of Thrones"},{"tconst":"tt0944947","location":"Ballymoney, County Antrim, Northern Ireland, UK","latitude":55.0704888,"longitude":-6.5173708,"titleType":"tvSeries","primaryTitle":"Game of Thrones"},{"tconst":"tt0944947","location":"Castle of Zafra, Guadalajara, Castilla-La Mancha, Spain","latitude":40.8347116,"longitude":-1.706353,"titleType":"tvSeries","primaryTitle":"Game of Thrones"},{"tconst":"tt0944947","location":"Ramparts, Essaouira, Morocco","latitude":31.5084926,"longitude":-9.7595041,"titleType":"tvSeries","primaryTitle":"Game of Thrones"},{"tconst":"tt0944947","location":"Carncastle, County Antrim, Northern Ireland, UK","latitude":54.89593,"longitude":-5.88173,"titleType":"tvSeries","primaryTitle":"Game of Thrones"},{"tconst":"tt0944947","location":"Tower of Mesa Roldan, Carboneras, Almeria, Spain","latitude":36.9416042,"longitude":-1.9064714,"titleType":"tvSeries","primaryTitle":"Game of Thrones"},{"tconst":"tt0944947","location":"Sierra de la Alhamilla, Almeria, Andalucia, Spain","latitude":36.8430845,"longitude":-2.4571857,"titleType":"tvSeries","primaryTitle":"Game of Thrones"},{"tconst":"tt0944947","location":"San Juan de Gaztelugatxe, Bermeo, Vizcaya, Pa\u00eds Vasco, Spain","latitude":43.4471185,"longitude":-2.7853101,"titleType":"tvSeries","primaryTitle":"Game of Thrones"},{"tconst":"tt0944947","location":"Trujillo, C\u00e1ceres, Extremadura, Spain","latitude":39.458293,"longitude":-5.8767284,"titleType":"tvSeries","primaryTitle":"Game of Thrones"},{"tconst":"tt0944947","location":"Cordoba, Andaluc\u00eda, Spain","latitude":37.8881751,"longitude":-4.7793835,"titleType":"tvSeries","primaryTitle":"Game of Thrones"},{"tconst":"tt0944947","location":"Sv\u00ednafellsj\u00f6kull Glacier, Iceland","latitude":64.0016011,"longitude":-16.8811858,"titleType":"tvSeries","primaryTitle":"Game of Thrones"},{"tconst":"tt0944947","location":"C\u00e1ceres, C\u00e1ceres, Extremadura, Spain","latitude":39.4751126,"longitude":-6.371453,"titleType":"tvSeries","primaryTitle":"Game of Thrones"},{"tconst":"tt0944947","location":"Zumaia, Guip\u00fazcoa, Pa\u00eds Vasco, Spain","latitude":43.2988236,"longitude":-2.256885,"titleType":"tvSeries","primaryTitle":"Game of Thrones"},{"tconst":"tt0944947","location":"Wolf Hill Quarry, Belfast, County Antrim, Northern Ireland, UK","latitude":54.6306915,"longitude":-6.008804,"titleType":"tvSeries","primaryTitle":"Game of Thrones"},{"tconst":"tt0944947","location":"Barrika, Vizcaya, Pa\u00eds Vasco, Spain","latitude":43.4067611,"longitude":-2.9648237,"titleType":"tvSeries","primaryTitle":"Game of Thrones"},{"tconst":"tt0944947","location":"Malpartida de C\u00e1ceres, C\u00e1ceres, Extremadura, Spain","latitude":39.4518028,"longitude":-6.4797071,"titleType":"tvSeries","primaryTitle":"Game of Thrones"},{"tconst":"tt0944947","location":"Canet de Mar, Barcelona, Catalonia, Spain","latitude":41.5889734,"longitude":2.5803886,"titleType":"tvSeries","primaryTitle":"Game of Thrones"},{"tconst":"tt0944947","location":"Giant's Causeway, County Antrim, Northern Ireland, UK","latitude":55.2408073,"longitude":-6.5115554,"titleType":"tvSeries","primaryTitle":"Game of Thrones"},{"tconst":"tt0944947","location":"Osuna, Sevilla, Andaluc\u00eda, Spain","latitude":37.2373642,"longitude":-5.1033081,"titleType":"tvSeries","primaryTitle":"Game of Thrones"},{"tconst":"tt0944947","location":"It\u00e1lica, Santiponce, Sevilla, Andaluc\u00eda, Spain","latitude":37.4441614,"longitude":-6.0443868,"titleType":"tvSeries","primaryTitle":"Game of Thrones"},{"tconst":"tt0944947","location":"Los Angeles, California, USA","latitude":34.0549076,"longitude":-118.242643,"titleType":"tvSeries","primaryTitle":"Game of Thrones"},{"tconst":"tt0944947","location":"Reales Atarazanas de Sevilla, Sevilla, Sevilla, Andaluc\u00eda, Spain","latitude":37.3848,"longitude":-5.99544,"titleType":"tvSeries","primaryTitle":"Game of Thrones"},{"tconst":"tt0944947","location":"Almod\u00f3var del R\u00edo, C\u00f3rdoba, Andaluc\u00eda, Spain","latitude":37.8131513,"longitude":-5.014567,"titleType":"tvSeries","primaryTitle":"Game of Thrones"},{"tconst":"tt0944947","location":"Kastilac Fort, Kastel Gomilica, Kastela, Croatia","latitude":43.5475902,"longitude":16.3955066,"titleType":"tvSeries","primaryTitle":"Game of Thrones"},{"tconst":"tt0944947","location":"La Alcazaba, Almer\u00eda, Almer\u00eda, Andalucia, Spain","latitude":36.8400107,"longitude":-2.4701489,"titleType":"tvSeries","primaryTitle":"Game of Thrones"},{"tconst":"tt0944947","location":"Sierra de Caldereros, Guadalajara, Castilla-La Mancha, Spain","latitude":40.8580556,"longitude":-1.7494444,"titleType":"tvSeries","primaryTitle":"Game of Thrones"},{"tconst":"tt0944947","location":"Klis, Croatia","latitude":43.5601784,"longitude":16.5207648,"titleType":"tvSeries","primaryTitle":"Game of Thrones"},{"tconst":"tt0944947","location":"Malta","latitude":35.937496,"longitude":14.375416,"titleType":"tvSeries","primaryTitle":"Game of Thrones"},{"tconst":"tt0944947","location":"Croatia","latitude":45.1,"longitude":15.2,"titleType":"tvSeries","primaryTitle":"Game of Thrones"},{"tconst":"tt0944947","location":"Lokrum Island, Croatia","latitude":42.6310979,"longitude":18.1176678,"titleType":"tvSeries","primaryTitle":"Game of Thrones"},{"tconst":"tt0944947","location":"Dioklecijanova Palaca - Diocletian's Palace, Dioklecijanova 1, 21000, Split, Croatia","latitude":43.5082646,"longitude":16.4401754,"titleType":"tvSeries","primaryTitle":"Game of Thrones"},{"tconst":"tt0944947","location":"Rector's Palace, Ul. Pred Dvorom 3, 20000, Dubrovnik, Croatia","latitude":42.640338,"longitude":18.1106427,"titleType":"tvSeries","primaryTitle":"Game of Thrones"},{"tconst":"tt0944947","location":"Pile Gate, Dubrovnik, Croatia","latitude":42.6417059,"longitude":18.1072035,"titleType":"tvSeries","primaryTitle":"Game of Thrones"},{"tconst":"tt0944947","location":"Tvrdjava Minceta, Minceta Tower, Dubrovnik, Croatia","latitude":42.6430069,"longitude":18.1083794,"titleType":"tvSeries","primaryTitle":"Game of Thrones"},{"tconst":"tt0944947","location":"Jezuitske stube, Dubrovnik, Croatia","latitude":42.6506606,"longitude":18.0944238,"titleType":"tvSeries","primaryTitle":"Game of Thrones"},{"tconst":"tt0944947","location":"Tvrdjava Bokar, Bokar Fortress, Dubrovnik, Croatia","latitude":42.6409194,"longitude":18.1061318,"titleType":"tvSeries","primaryTitle":"Game of Thrones"},{"tconst":"tt0944947","location":"Tvrdjava Lovrijenac, Fort Lovrijenac, Dubrovnik, Croatia","latitude":42.6407889,"longitude":18.1042514,"titleType":"tvSeries","primaryTitle":"Game of Thrones"},{"tconst":"tt0944947","location":"Arboretum Trsteno, Potok 20, 20233, Trsteno, Croatia","latitude":42.7133001,"longitude":17.9768322,"titleType":"tvSeries","primaryTitle":"Game of Thrones"},{"tconst":"tt0944947","location":"Katedrala sv. Jakova, The Cathedral of St. Jakov, Trg Republike Hrvatske 1, Sibenik, Croatia","latitude":43.7356457,"longitude":15.8890792,"titleType":"tvSeries","primaryTitle":"Game of Thrones"},{"tconst":"tt0944947","location":"Downhill Strand, Ireland, UK","latitude":55.1685,"longitude":-6.8075,"titleType":"tvSeries","primaryTitle":"Game of Thrones"},{"tconst":"tt0944947","location":"Portstewart Strand, Ireland, UK","latitude":55.1688557,"longitude":-6.7502389,"titleType":"tvSeries","primaryTitle":"Game of Thrones"}]